City,Product ID,Order ID,First Name,Last Name,Units Sold,Unit Price,Unit Cost,Total Revenue,Total Cost,Total Profit,Latitude,Longitude
Columbus,Product1,957081544,Angelique,Goodwin,552,255.28,159.42,140914.56,87999.84,52914.72,40.14453,-82.99115
Scarsdale,Product1,301644504,Jeni,Shaffer,2167,152.58,97.44,330640.86,211152.48,119488.38,40.97008,-73.8067
Great Neck,Product1,478051030,Donald,Farris,4778,47.45,31.79,226716.1,151892.62,74823.48,40.77944,-73.7224
Hartsdale,Product1,892599952,Steven,Rendon,9016,205.7,117.11,1854591.2,1055863.76,798727.44,41.02654,-73.79168
Lawrence,Product2,571902596,Jenell,Almanza,7542,152.58,97.44,1150758.36,734892.48,415865.88,40.62715,-73.73675
Mount Vernon,Product1,412882792,Almeta,Brookins,48,81.73,56.67,3923.04,2720.16,1202.88,40.91144,-73.83804
Bronx,Product1,932776868,Bobbie,Branson,8258,109.28,35.84,902434.24,295966.72,606467.52,40.82292,-73.84887
Bronx,Product1,919133651,Bertram,Carlisle,927,109.28,35.84,101302.56,33223.68,68078.88,40.85389,-73.9076
Bronx,Product1,579814469,Carlton,Leclair,8841,109.28,35.84,966144.48,316861.44,649283.04,40.87151,-73.84823
Bronx,Product1,192993152,Todd,Slater,9817,255.28,159.42,2506083.76,1565026.14,941057.62,40.86671,-73.89562
Bronx,Product1,557156026,Adalberto,Hazel,3704,651.21,524.96,2412081.84,1944451.84,467630,40.88763,-73.90737
New York City,Product1,741101920,Seymour,Nelson,7382,437.2,263.33,3227410.4,1943902.06,1283508.34,40.84941,-73.9337
Bronx,Product1,333942162,Vicente,Dawkins,9762,205.7,117.11,2008043.4,1143227.82,864815.58,40.87913,-73.90465
Bronx,Product1,795100581,Rex,Ng,6786,437.2,263.33,2966839.2,1786957.38,1179881.82,40.84239,-73.84501
Brooklyn,Product1,504313504,Arlena,Clough,6428,255.28,159.42,1640939.84,1024751.76,616188.08,40.60268,-73.99304
Brooklyn,Product1,611629760,Cory,Clarke,3693,421.89,364.69,1558039.77,1346800.17,211239.6,40.67576,-73.97135
Brooklyn,Product1,987410676,Sofia,Poole,5616,205.7,117.11,1155211.2,657689.76,497521.44,40.68279,-74.00556
New York City,Product1,672330081,Samuel,Wendt,6266,651.21,524.96,4080481.86,3289399.36,791082.5,40.75675,-73.97008
New York City,Product2,127374303,Virgil,Trowbridge,1742,47.45,31.79,82657.9,55378.18,27279.72,40.77158,-73.95038
New York City,Product1,783842170,Elda,Champagne,5172,255.28,159.42,1320308.16,824520.24,495787.92,40.83951,-73.94077
New York City,Product1,993345010,Robert,Guinn,1718,47.45,31.79,81519.1,54615.22,26903.88,40.76815,-73.95696
New York City,Product1,977806651,Humberto,Sauer,3572,255.28,159.42,911860.16,569448.24,342411.92,40.7229,-73.99889
New York City,Product1,579463422,Anastasia,Childers,4958,9.33,6.92,46258.14,34309.36,11948.78,40.75658,-73.98629
New York City,Product1,610864150,Collene,Kidd,7132,47.45,31.79,338413.4,226726.28,111687.12,40.72258,-74.00624
New York City,Product1,604870164,Harris,Beavers,3378,152.58,97.44,515415.24,329152.32,186262.92,40.71668,-73.9977
New York City,Product1,164655292,Kathe,John,4015,205.7,117.11,825885.5,470196.65,355688.85,40.77966,-73.95609
New York City,Product1,313705861,Ashly,Stanton,1390,9.33,6.92,12968.7,9618.8,3349.9,40.77746,-73.97885
New York City,Product1,345820701,Geraldo,Easley,4885,651.21,524.96,3181160.85,2564429.6,616731.25,40.76302,-73.96761
New York City,Product1,975111138,Leigh,Fite,5910,255.28,159.42,1508704.8,942172.2,566532.6,40.74743,-74.00339
Bronx,Product1,286001002,Devon,Knox,2907,152.58,97.44,443550.06,283258.08,160291.98,40.84628,-73.89296
New York City,Product1,483226621,Yevette,Mullis,6350,437.2,263.33,2776220,1672145.5,1104074.5,40.73803,-73.99857
New York City,Product1,241836822,Irena,Dang,3744,109.28,35.84,409144.32,134184.96,274959.36,40.77067,-73.96198
New York City,Product1,557192933,Cory,Hayden,4626,109.28,35.84,505529.28,165795.84,339733.44,40.73333,-74.00262
New York City,Product1,694968783,Dolores,Begley,5562,421.89,364.69,2346552.18,2028405.78,318146.4,40.7568,-73.96401
New York City,Product1,441150701,Benjamin,Doss,5150,9.33,6.92,48049.5,35638,12411.5,40.7482,-73.98473
New York City,Product1,552037513,Theron,Farmer,9022,205.7,117.11,1855825.4,1056566.42,799258.98,40.74677,-73.99363
New York City,Product2,504240548,Hilton,Mcgehee,4838,437.2,263.33,2115173.6,1273990.54,841183.06,40.78609,-73.97107
New York City,Product1,744683635,Sixta,Beaudoin,7291,154.06,90.93,1123251.46,662970.63,460280.83,40.77643,-73.94813
New York City,Product1,440603101,Sade,Shay,3104,81.73,56.67,253689.92,175903.68,77786.24,40.74977,-73.97518
New York City,Product2,629547774,Shemika,Beckman,6031,109.28,35.84,659067.68,216151.04,442916.64,40.75971,-73.98065
Long Island City,Product2,169378983,Winfred,Gonzales,1860,421.89,364.69,784715.4,678323.4,106392,40.7667,-73.92097
Bayside,Product1,688270556,Rogelio,Woodall,3407,81.73,56.67,278454.11,193074.69,85379.42,40.77942,-73.77563
Far Rockaway,Product1,734708821,Damion,Rafferty,5522,421.89,364.69,2329676.58,2013818.18,315858.4,40.60378,-73.752
Flushing,Product2,727492606,Dannie,Catron,84,152.58,97.44,12816.72,8184.96,4631.76,40.76001,-73.83035
Forest Hills,Product1,705733239,Stephan,Titus,1003,255.28,159.42,256045.84,159898.26,96147.58,40.72118,-73.8441
New York City,Product2,778854548,Dorian,Sage,9224,651.21,524.96,6006761.04,4842231.04,1164530,40.80369,-73.96685
Jamaica,Product1,676592862,Jake,Espinal,7718,437.2,263.33,3374309.6,2032380.94,1341928.66,40.67933,-73.77793
Long Island City,Product1,198997008,Claudio,Heck,6492,668.27,502.54,4338408.84,3262489.68,1075919.16,40.74251,-73.95271
Astoria,Product1,566428315,Marcel,Trotter,7581,47.45,31.79,359718.45,240999.99,118718.46,40.75923,-73.9196
Rego Park,Product1,369560611,Dillon,Dominguez,52,255.28,159.42,13274.56,8289.84,4984.72,40.72943,-73.85975
Staten Island,Product1,519380223,Sammy,Dewitt,5005,152.58,97.44,763662.9,487687.2,275975.7,40.62683,-74.07567
Oceanside,Product1,197185981,Sterling,Serna,568,651.21,524.96,369887.28,298177.28,71710,40.63109,-73.64089
Pelham,Product1,904589211,Ivonne,Manning,6905,651.21,524.96,4496605.05,3624848.8,871756.25,40.91176,-73.80945
Rockville Centre,Product1,613513743,Clair,Harwell,1205,668.27,502.54,805265.35,605560.7,199704.65,40.65661,-73.64764
Hempstead,Product1,516195905,Jenni,Goolsby,2694,109.28,35.84,294400.32,96552.96,197847.36,40.70674,-73.63147
Staten Island,Product1,975184524,Tayna,Poston,7626,154.06,90.93,1174861.56,693432.18,481429.38,40.62419,-74.13831
Woodbury,Product1,173340928,Vern,Mackenzie,4287,109.28,35.84,468483.36,153646.08,314837.28,40.81449,-73.47665
Elmsford,Product1,863838946,Harrison,Hawk,7995,81.73,56.67,653431.35,453076.65,200354.7,41.06551,-73.81447
Plainview,Product1,920164906,Preston,Tribble,6099,205.7,117.11,1254564.3,714253.89,540310.41,40.7763,-73.47066
Brooklyn,Product2,986117637,Aleen,Araujo,2977,421.89,364.69,1255966.53,1085682.13,170284.4,40.59016,-73.96064
Thornwood,Product1,425808465,Brent,Carrillo,5042,205.7,117.11,1037139.4,590468.62,446670.78,41.11301,-73.77218
New York City,Product1,473661220,Adalberto,Tate,5736,47.45,31.79,272173.2,182347.44,89825.76,40.75411,-73.98694
Bronx,Product1,184412229,Rafael,Weeks,531,255.28,159.42,135553.68,84652.02,50901.66,40.87514,-73.87956
Oakland Gardens,Product1,483110320,Aurea,Pullen,1934,154.06,90.93,297952.04,175858.62,122093.42,40.74058,-73.75897
White Plains,Product2,115116822,Ramiro,Holguin,4481,668.27,502.54,2994517.87,2251881.74,742636.13,41.0281,-73.76476
Flushing,Product1,596105563,Celine,Lumpkin,9738,255.28,159.42,2485916.64,1552431.96,933484.68,40.72713,-73.8219
Brooklyn,Product1,362062871,Bryant,Naylor,1304,152.58,97.44,198964.32,127061.76,71902.56,40.68017,-73.94548
New York City,Product1,619287574,Oswaldo,Winchester,9810,47.45,31.79,465484.5,311859.9,153624.6,40.62724,-74.07584
Mineola,Product1,394391000,Kacy,Crandall,7916,109.28,35.84,865060.48,283709.44,581351.04,40.75111,-73.63561
Flushing,Product1,584296977,Brock,Hutcherson,5315,47.45,31.79,252196.75,168963.85,83232.9,40.75799,-73.7855
Bronx,Product1,806241834,Ramiro,Conover,3730,109.28,35.84,407614.4,133683.2,273931.2,40.87886,-73.91723
New York City,Product1,747774398,Myron,Marble,1916,421.89,364.69,808341.24,698746.04,109595.2,40.74255,-73.99181
Amityville,Product1,616755998,Freeman,Kern,660,421.89,364.69,278447.4,240695.4,37752,40.67894,-73.41969
Babylon,Product1,691360461,Mathew,Whitfield,7779,255.28,159.42,1985823.12,1240128.18,745694.94,40.69642,-73.32368
Center Moriches,Product1,870074117,Alexander,Goad,3121,47.45,31.79,148091.45,99216.59,48874.86,40.80038,-72.79423
Deer Park,Product1,221695792,Renee,Beverly,3566,651.21,524.96,2322214.86,1872007.36,450207.5,40.75895,-73.32
East Northport,Product1,135336816,Tommie,Weller,8026,9.33,6.92,74882.58,55539.92,19342.66,40.87534,-73.32424
Massapequa Park,Product1,270421016,Michale,Colson,2443,651.21,524.96,1590906.03,1282477.28,308428.75,40.66638,-73.45151
Melville,Product1,806684720,Denisha,Fitch,4790,668.27,502.54,3201013.3,2407166.6,793846.7,40.78894,-73.41543
North Bellmore,Product1,194176757,Napoleon,Kelsey,72,668.27,502.54,48115.44,36182.88,11932.56,40.68369,-73.53926
Northport,Product1,103258454,Tonya,Wilson,5326,255.28,159.42,1359621.28,849070.92,510550.36,40.90022,-73.35111
Riverhead,Product1,474603641,Clement,Hidalgo,4619,651.21,524.96,3007938.99,2424790.24,583148.75,40.92665,-72.68985
Seaford,Product1,869198644,Charles,Quintero,4049,205.7,117.11,832879.3,474178.39,358700.91,40.66589,-73.48901
Southampton,Product1,918342292,Chastity,Pineda,6747,668.27,502.54,4508817.69,3390637.38,1118180.31,40.88602,-72.39175
Huntington Station,Product2,773645913,Verna,Michaud,7873,437.2,263.33,3442075.6,2073197.09,1368878.51,40.82849,-73.41184
North Massapequa,Product2,657033336,Alfred,Beamon,9620,437.2,263.33,4205864,2533234.6,1672629.4,40.69588,-73.48077
Wantagh,Product1,410740888,Michal,Maurer,6211,421.89,364.69,2620358.79,2265089.59,355269.2,40.69326,-73.50773
West Babylon,Product1,847317397,Wenona,Carmichael,8902,421.89,364.69,3755664.78,3246470.38,509194.4,40.71363,-73.34911
Wyandanch,Product1,599624192,Allan,Bernhardt,978,47.45,31.79,46406.1,31090.62,15315.48,40.75205,-73.36144
North Patchogue,Product1,170835101,Nam,Schmidt,2758,47.45,31.79,130867.1,87676.82,43190.28,40.78404,-73.00877
Bay Shore,Product1,584436452,Yolande,Piper,6588,205.7,117.11,1355151.6,771520.68,583630.92,40.72923,-73.27809
Huntington,Product1,234227073,Whitney,Shipman,1851,651.21,524.96,1205389.71,971700.96,233688.75,40.87074,-73.43057
Mineola,Product1,734318292,Terence,Ferro,9956,651.21,524.96,6483446.76,5226501.76,1256945,40.73882,-73.64001
East Farmingdale,Product1,169133937,Alberto,Riley,9345,152.58,97.44,1425860.1,910576.8,515283.3,40.74442,-73.42264
Bronx,Product1,743410336,Jacqueline,Burk,494,205.7,117.11,101615.8,57852.34,43763.46,40.8558,-73.88736
New York City,Product1,232196319,Clemente,Gould,905,668.27,502.54,604784.35,454798.7,149985.65,40.78133,-73.96007
Hauppauge,Product1,530853211,Chang,Roden,117,47.45,31.79,5551.65,3719.43,1832.22,40.80679,-73.25463
Ronkonkoma,Product1,905054843,Marvin,Nickel,4695,9.33,6.92,43804.35,32489.4,11314.95,40.78232,-73.09576
Smithtown,Product1,240787541,Eldora,Tribble,3239,668.27,502.54,2164526.53,1627727.06,536799.47,40.85479,-73.19593
Stony Brook,Product1,194350135,Azzie,Layman,1379,421.89,364.69,581786.31,502907.51,78878.8,40.87261,-73.12509
Fort Salonga,Product1,242353951,Titus,Latimer,6775,668.27,502.54,4527529.25,3404708.5,1122820.75,40.9124,-73.30051
Nanuet,Product1,831722819,Shantell,Long,4120,154.06,90.93,634727.2,374631.6,260095.6,41.11233,-74.01439
Orangeburg,Product1,229693067,Cameron,Irvin,138,437.2,263.33,60333.6,36339.54,23994.06,41.04667,-73.94522
Valley Cottage,Product1,373813521,Virgilio,Messer,8583,205.7,117.11,1765523.1,1005155.13,760367.97,41.11734,-73.94144
Bronx,Product1,121945512,Eboni,Lujan,5242,47.45,31.79,248732.9,166643.18,82089.72,40.82725,-73.92476
Floral Park,Product1,202262866,Ward,Gauthier,2932,9.33,6.92,27355.56,20289.44,7066.12,40.75923,-73.71294
Yorktown Heights,Product1,963251912,Yasuko,Gandy,6501,81.73,56.67,531326.73,368411.67,162915.06,41.33153,-73.80646
New York City,Product1,123711478,Agustin,Eden,7830,668.27,502.54,5232554.1,3934888.2,1297665.9,40.71053,-74.01629
New York City,Product1,422752892,Sunny,Mccreary,830,109.28,35.84,90702.4,29747.2,60955.2,40.7839,-73.98015
Bronx,Product1,169799983,Janyce,Hollenbeck,6443,9.33,6.92,60113.19,44585.56,15527.63,40.84911,-73.85402
Staten Island,Product1,894589078,Bernardo,Caron,7643,154.06,90.93,1177480.58,694977.99,482502.59,40.51718,-74.23413
Brentwood,Product1,597169005,Leon,Keeling,4434,651.21,524.96,2887465.14,2327672.64,559792.5,40.77857,-73.24617
Lake Ronkonkoma,Product1,497901093,Walker,Foley,8853,651.21,524.96,5765162.13,4647470.88,1117691.25,40.83041,-73.09187
Bellmore,Product1,987459170,Rolando,Bickford,9967,81.73,56.67,814602.91,564829.89,249773.02,40.66299,-73.52854
Bronx,Product1,276829564,Glenn,Pace,8875,81.73,56.67,725353.75,502946.25,222407.5,40.8654,-73.86543
Bronx,Product1,247311103,Tandy,Binkley,3706,668.27,502.54,2476608.62,1862413.24,614195.38,40.90559,-73.90439
Bronx,Product1,600515115,Irving,Toler,4622,9.33,6.92,43123.26,31984.24,11139.02,40.82864,-73.87836
Bronx,Product1,208365428,Elin,Mayes,8815,651.21,524.96,5740416.15,4627522.4,1112893.75,40.84425,-73.78537
Bronx,Product1,263098371,William,Katz,5509,81.73,56.67,450250.57,312195.03,138055.54,40.86236,-73.8981
Bronx,Product1,227262771,Silvana,Leclair,959,651.21,524.96,624510.39,503436.64,121073.75,40.81641,-73.91896
Bronx,Product1,983719956,Kirby,Hendrick,3450,651.21,524.96,2246674.5,1811112,435562.5,40.881,-73.88322
Bronx,Product1,785643756,Rubin,Newman,8301,255.28,159.42,2119079.28,1323345.42,795733.86,40.85414,-73.86764
Brooklyn,Product1,206520497,Lee,Roderick,2859,651.21,524.96,1861809.39,1500860.64,360948.75,40.66074,-73.88503
Brooklyn,Product1,790149009,Jesus,Maupin,1505,437.2,263.33,657986,396311.65,261674.35,40.63496,-73.9922
Brooklyn,Product1,100640618,Riley,Yocum,650,205.7,117.11,133705,76121.5,57583.5,40.69423,-73.99223
Brooklyn,Product1,272419154,Nova,Bouchard,3736,81.73,56.67,305343.28,211719.12,93624.16,40.66971,-73.91058
Brooklyn,Product1,360220944,Shandra,Layman,6237,421.89,364.69,2631327.93,2274571.53,356756.4,40.712,-73.94064
Brooklyn,Product1,389094817,Jacquie,Burkett,658,47.45,31.79,31222.1,20917.82,10304.28,40.65128,-73.93028
Brooklyn,Product1,904402101,Nelle,Kenney,1534,421.89,364.69,647179.26,559434.46,87744.8,40.69073,-73.9553
Brooklyn,Product1,721816623,Rich,Whitmore,434,154.06,90.93,66862.04,39463.62,27398.42,40.65042,-73.95864
Brooklyn,Product1,977324712,Antoine,Hendrick,955,152.58,97.44,145713.9,93055.2,52658.7,40.64577,-74.01322
Brooklyn,Product1,177225196,Blaine,Judkins,3729,47.45,31.79,176941.05,118544.91,58396.14,40.62129,-73.93544
Brooklyn,Product1,948129403,Raymundo,Poirier,1415,47.45,31.79,67141.75,44982.85,22158.9,40.63432,-73.96269
Brooklyn,Product1,586961162,Blair,Tapia,3706,421.89,364.69,1563524.34,1351541.14,211983.2,40.60919,-73.95643
Brooklyn,Product1,510956799,Charley,Cabrera,2326,152.58,97.44,354901.08,226645.44,128255.64,40.61909,-73.99014
Brooklyn,Product1,407665145,Heath,Hartley,6030,421.89,364.69,2543996.7,2199080.7,344916,40.66985,-73.98073
Brooklyn,Product1,484947526,Zack,Singh,5604,421.89,364.69,2364271.56,2043722.76,320548.8,40.70909,-73.95906
Brooklyn,Product1,120977771,Zaida,Odum,8866,9.33,6.92,82719.78,61352.72,21367.06,40.63127,-73.946
Brooklyn,Product1,114242208,Porfirio,Slone,5663,81.73,56.67,462836.99,320922.21,141914.78,40.59911,-73.95374
Brooklyn,Product1,433539664,Ryan,Morrell,2876,109.28,35.84,314289.28,103075.84,211213.44,40.67313,-73.97627
Brooklyn,Product1,667981469,Luther,Hannan,9416,421.89,364.69,3972516.24,3433921.04,538595.2,40.68837,-73.98067
Brooklyn,Product1,476991450,Deon,Elizondo,1225,152.58,97.44,186910.5,119364,67546.5,40.58801,-73.95236
Brooklyn,Product1,940305936,Dana,Brinson,6277,651.21,524.96,4087645.17,3295173.92,792471.25,40.66975,-73.93096
Brooklyn,Product1,507973754,Manual,Dupuis,9577,255.28,159.42,2444816.56,1526765.34,918051.22,40.6977,-73.96749
New York City,Product1,850356233,Kenton,Franz,8161,437.2,263.33,3567989.2,2149036.13,1418953.07,40.71853,-73.99513
New York City,Product1,108127200,Julian,Bull,6096,421.89,364.69,2571841.44,2223150.24,348691.2,40.79445,-73.97206
New York City,Product1,542272984,Deon,Heath,9481,651.21,524.96,6174122.01,4977145.76,1196976.25,40.71855,-73.98854
New York City,Product1,884092414,Angela,Landers,1447,651.21,524.96,942300.87,759617.12,182683.75,40.74292,-73.98449
New York City,Product2,385196816,Heidi,Reiter,7153,668.27,502.54,4780135.31,3594668.62,1185466.69,40.73203,-73.99448
New York City,Product1,167510020,Gayle,Green,8792,421.89,364.69,3709256.88,3206354.48,502902.4,40.81054,-73.95217
New York City,Product3,973268353,Janey,Swift,589,47.45,31.79,27948.05,18724.31,9223.74,40.82581,-73.95111
New York City,Product1,915020644,Emilio,Courtney,3797,9.33,6.92,35426.01,26275.24,9150.77,40.80728,-73.94431
New York City,Product1,425628221,Brinda,Lowell,1704,437.2,263.33,744988.8,448714.32,296274.48,40.73198,-73.98219
New York City,Product1,908264911,Alexander,Lange,4626,47.45,31.79,219503.7,147060.54,72443.16,40.77162,-73.96504
New York City,Product1,686417043,Frank,Reinhardt,4912,205.7,117.11,1010398.4,575244.32,435154.08,40.75598,-73.97686
New York City,Product1,853883445,Monty,Pryor,1941,668.27,502.54,1297112.07,975430.14,321681.93,40.74387,-73.97955
Astoria,Product1,324775445,Brinda,Fortune,7126,205.7,117.11,1465818.2,834525.86,631292.34,,
Corona,Product2,783516871,Benny,Couture,8909,205.7,117.11,1832581.3,1043332.99,789248.31,,
Glen Oaks,Product2,834844052,Monty,Vogel,7762,437.2,263.33,3393546.4,2043967.46,1349578.94,40.74549,-73.71507
Hollis,Product2,953805816,Lester,Coughlin,1191,152.58,97.44,181722.78,116051.04,65671.74,40.72077,-73.76014
Jackson Heights,Product2,335763490,Shellie,Herring,8733,651.21,524.96,5687016.93,4584475.68,1102541.25,,
Forest Hills,Product1,946390902,Kerrie,Chiu,6954,437.2,263.33,3040288.8,1831196.82,1209091.98,40.71475,-73.83218
Sunnyside,Product1,771674382,Gerard,Dickens,4453,154.06,90.93,686029.18,404911.29,281117.89,40.74315,-73.91708
Ridgewood,Product1,567912757,Parker,Tuck,6860,205.7,117.11,1411102,803374.6,607727.4,40.70068,-73.89588
Woodside,Product1,711717355,Riva,Hannan,1836,651.21,524.96,1195621.56,963826.56,231795,,
Scarsdale,Product1,750012004,Steve,Mercier,4074,651.21,524.96,2653029.54,2138687.04,514342.5,40.99988,-73.8153
New York City,Product1,750033032,Fleta,Sutton,297,152.58,97.44,45316.26,28939.68,16376.58,40.74959,-73.99172
Staten Island,Product1,849329268,Chung,Corbett,4259,668.27,502.54,2846161.93,2140317.86,705844.07,40.56537,-74.11471
Port Washington,Product1,805762040,Frieda,Forster,1748,421.89,364.69,737463.72,637478.12,99985.6,40.83042,-73.6906
Bronx,Product1,447505176,Sirena,Fogle,5581,205.7,117.11,1148011.7,653590.91,494420.79,40.81068,-73.88309
Bedford,Product1,123045003,Alisha,Bard,606,47.45,31.79,28754.7,19264.74,9489.96,41.19557,-73.65517
Yonkers,Product1,251180350,Deedee,Mercado,8702,668.27,502.54,5815285.54,4373103.08,1442182.46,40.96985,-73.88435
Valley Stream,Product2,871022546,Cecile,Driver,3782,668.27,502.54,2527397.14,1900606.28,626790.86,40.6663,-73.70341
Croton-On-Hudson,Product1,291995418,Roosevelt,Nava,6788,9.33,6.92,63332.04,46972.96,16359.08,41.23329,-73.91364
Brooklyn,Product1,943835294,Floyd,Bollinger,692,109.28,35.84,75621.76,24801.28,50820.48,40.68394,-73.8709
Brooklyn,Product2,826591002,Lacey,Jones,5501,651.21,524.96,3582306.21,2887804.96,694501.25,40.6478,-73.90661
Brooklyn,Product1,260623872,Larry,Dial,3250,437.2,263.33,1420900,855822.5,565077.5,40.72777,-73.95299
Ridgewood,Product1,536607730,Joel,Holiday,3007,154.06,90.93,463258.42,273426.51,189831.91,40.71165,-73.85987
Mount Sinai,Product1,765528905,Camilla,Malloy,5870,81.73,56.67,479755.1,332652.9,147102.2,40.93189,-73.03321
Larchmont,Product1,128686225,Tyron,Lash,9968,255.28,159.42,2544631.04,1589098.56,955532.48,40.93503,-73.74785
Commack,Product1,127691018,Joey,Wren,5465,154.06,90.93,841937.9,496932.45,345005.45,40.80733,-73.27931
Selden,Product1,534467113,Hubert,Ferrer,9550,154.06,90.93,1471273,868381.5,602891.5,40.86371,-73.04897
Great Neck,Product2,741250836,Jason,Yarbrough,1450,81.73,56.67,118508.5,82171.5,36337,40.78864,-73.72687
Hartsdale,Product1,210591018,Raymond,Homan,7417,152.58,97.44,1131685.86,722712.48,408973.38,41.02211,-73.80873
Mount Vernon,Product1,725348985,Carmen,Cazares,5738,154.06,90.93,883996.28,521756.34,362239.94,40.92465,-73.83623
Little Neck,Product1,538698565,Daisy,Noland,1731,668.27,502.54,1156775.37,869896.74,286878.63,,
Staten Island,Product1,224126088,Archie,Caban,2745,205.7,117.11,564646.5,321466.95,243179.55,40.59872,-74.08087
Bronx,Product1,425430381,Bryan,Labbe,3159,47.45,31.79,149894.55,100424.61,49469.94,40.83359,-73.86131
Bronx,Product1,506722772,Shae,Dowdell,9383,154.06,90.93,1445544.98,853196.19,592348.79,40.83075,-73.82626
Bronx,Product3 ,802427089,Bertha,Meador,4862,651.21,524.96,3166183.02,2552355.52,613827.5,40.81048,-73.92806
Bronx,Product1,367279660,Rick,Miles,5068,437.2,263.33,2215729.6,1334556.44,881173.16,40.89317,-73.85647
Brooklyn,Product1,126329314,Lon,Carmona,2506,81.73,56.67,204815.38,142015.02,62800.36,40.60485,-73.99799
Brooklyn,Product1,624937379,Linnie,Christiansen,1713,81.73,56.67,140003.49,97075.71,42927.78,40.66417,-73.95098
Brooklyn,Product1,678777682,Terica,Finney,4255,152.58,97.44,649227.9,414607.2,234620.7,40.61711,-73.91128
Brooklyn,Product1,523836553,Jae,Nowlin,3732,205.7,117.11,767672.4,437054.52,330617.88,40.61836,-74.03315
New York City,Product2,466412818,Jame,Marchand,772,205.7,117.11,158800.4,90408.92,68391.48,40.76015,-73.97195
New York City,Product1,433117806,Larisa,Baines,8039,9.33,6.92,75003.87,55629.88,19373.99,40.79069,-73.94248
New York City,Product1,420875346,Delsie,Rees,5223,437.2,263.33,2283495.6,1375372.59,908123.01,40.81311,-73.93745
New York City,Product1,946921765,Janna,Spooner,4048,437.2,263.33,1769785.6,1065959.84,703825.76,40.76362,-73.97763
New York City,Product1,798805892,Harvey,Novotny,3270,668.27,502.54,2185242.9,1643305.8,541937.1,40.75237,-73.97836
New York City,Product1,184389054,Muriel,Capps,3674,668.27,502.54,2455223.98,1846331.96,608892.02,40.72748,-74.00734
New York City,Product1,281845080,Emelina,Bright,3077,668.27,502.54,2056266.79,1546315.58,509951.21,40.72602,-73.99625
New York City,Product1,989660298,Nida,Christ,1330,421.89,364.69,561113.7,485037.7,76076,40.76655,-73.96925
New York City,Product1,476633536,Margareta,Knotts,5310,154.06,90.93,818058.6,482838.3,335220.3,40.71124,-74.00866
New York City,Product2,131876122,Michelle,Watters,3930,255.28,159.42,1003250.4,626520.6,376729.8,40.77613,-73.96219
New York City,Product1,514811885,Ferdinand,Kuhn,3132,421.89,364.69,1321359.48,1142209.08,179150.4,40.75012,-73.96888
New York City,Product3,905177152,Muoi,Robertson,889,651.21,524.96,578925.69,466689.44,112236.25,40.7363,-73.9934
New York City,Product1,653020751,Yasuko,Ledford,2207,81.73,56.67,180378.11,125070.69,55307.42,40.7743,-73.95719
New York City,Product1,528704011,Christopher,Montez,4121,421.89,364.69,1738608.69,1502887.49,235721.2,40.77959,-73.98192
New York City,Product2,472900760,Scott,Lassiter,699,152.58,97.44,106653.42,68110.56,38542.86,40.75954,-73.96798
New York City,Product1,946597325,Johnathon,Beltran,8039,255.28,159.42,2052195.92,1281577.38,770618.54,40.86383,-73.92618
Astoria,Product1,681092536,Scarlett,Valle,9272,651.21,524.96,6038019.12,4867429.12,1170590,40.78013,-73.90961
Corona,Product1,727997720,Ta,Yarborough,9558,154.06,90.93,1472505.48,869108.94,603396.54,40.75213,-73.86393
Flushing,Product1,409236705,Nathanial,Weldon,1090,255.28,159.42,278255.2,173767.8,104487.4,40.76096,-73.8022
Forest Hills,Product1,467045819,Jamel,Schweitzer,8092,81.73,56.67,661359.16,458573.64,202785.52,,
Fresh Meadows,Product1,813973891,Gracia,Roldan,1818,437.2,263.33,794829.6,478733.94,316095.66,,
Jackson Heights,Product1,982882249,Sheri,Ridley,5554,668.27,502.54,3711571.58,2791107.16,920464.42,40.74698,-73.89042
Jamaica,Product1,576944720,Heriberto,Spearman,9619,437.2,263.33,4205426.8,2532971.27,1672455.53,40.70424,-73.79809
Kew Gardens,Product1,619647634,Ellsworth,Rhyne,6360,154.06,90.93,979821.6,578314.8,401506.8,40.70854,-73.83069
Maspeth,Product1,404789817,Waldo,Breen,5157,255.28,159.42,1316478.96,822128.94,494350.02,40.72428,-73.89845
Ridgewood,Product1,646482598,Isreal,Holliman,7422,152.58,97.44,1132448.76,723199.68,409249.08,,
Middle Village,Product1,329149806,Leana,Fowler,1597,421.89,364.69,673758.33,582409.93,91348.4,40.71286,-73.87803
Ozone Park,Product1,757527768,Boyd,Osburn,8155,651.21,524.96,5310617.55,4281048.8,1029568.75,40.68472,-73.84441
South Richmond Hill,Product2,606665313,Les,Blocker,4602,437.2,263.33,2011994.4,1211844.66,800149.74,40.685,-73.83045
Rockaway Park,Product1,871923768,Daren,Broadnax,474,255.28,159.42,121002.72,75565.08,45437.64,40.58016,-73.83724
Whitestone,Product1,818976962,Tyler,Broughton,2337,154.06,90.93,360038.22,212503.41,147534.81,40.78698,-73.80896
Woodhaven,Product2,233811223,Russel,Bostic,8792,437.2,263.33,3843862.4,2315197.36,1528665.04,40.69252,-73.8598
Staten Island,Product1,772725379,Johnnie,Janssen,5466,47.45,31.79,259361.7,173764.14,85597.56,40.57299,-74.11458
Staten Island,Product1,112330758,Gaylene,Pearce,22,651.21,524.96,14326.62,11549.12,2777.5,40.62962,-74.11126
Syosset,Product1,499551188,Chi,Cho,7153,109.28,35.84,781679.84,256363.52,525316.32,40.80619,-73.52079
Yorktown Heights,Product2,201622998,Erich,Fullerton,3581,109.28,35.84,391331.68,128343.04,262988.64,41.27755,-73.78445
New York City,Product2,256095016,Gladis,Harless,3061,651.21,524.96,1993353.81,1606902.56,386451.25,40.61807,-73.96002
Valley Stream,Product2,420828568,Karly,Jacob,1380,9.33,6.92,12875.4,9549.6,3325.8,40.65331,-73.72446
Ardsley,Product1,523997485,Lise,Breen,1355,205.7,117.11,278723.5,158684.05,120039.45,41.01809,-73.84419
Brooklyn,Product1,914088094,Bong,Wilmoth,7835,651.21,524.96,5102230.35,4113061.6,989168.75,40.57777,-73.96046
Brooklyn,Product2,209899222,Sherika,Gordon,2699,152.58,97.44,411813.42,262990.56,148822.86,40.63109,-73.97626
Bronx,Product1,250542199,Geraldo,Curry,9859,109.28,35.84,1077391.52,353346.56,724044.96,40.85194,-73.82943
Carle Place,Product1,245440852,Shakita,Hargis,257,421.89,364.69,108425.73,93725.33,14700.4,40.74416,-73.60935
Millwood,Product1,824331510,Patrice,Hickson,6867,154.06,90.93,1057930.02,624416.31,433513.71,41.18801,-73.80361
New York City,Product1,887263000,Marvis,Cisneros,9693,421.89,364.69,4089379.77,3534940.17,554439.6,40.77802,-73.95207
Jamaica,Product2,754596650,Sherrie,Switzer,772,205.7,117.11,158800.4,90408.92,68391.48,40.71413,-73.77765
Cross River,Product1,817006289,Wilhemina,Clay,9172,9.33,6.92,85574.76,63470.24,22104.52,41.26748,-73.59811
New Rochelle,Product1,185478246,Rosario,Mcmaster,5989,109.28,35.84,654477.92,214645.76,439832.16,40.94795,-73.79482
Bronx,Product1,741311347,Ned,Adkins,9356,81.73,56.67,764665.88,530204.52,234461.36,40.8662,-73.83816
Roslyn Heights,Product3,386116921,Mabel,Waite,9432,81.73,56.67,770877.36,534511.44,236365.92,40.78575,-73.62236
New York City,Product1,691818797,Lucilla,Perrin,3411,421.89,364.69,1439066.79,1243957.59,195109.2,40.73755,-74.00471
New York City,Product1,150653302,Modesta,Wicker,515,152.58,97.44,78578.7,50181.6,28397.1,40.85499,-73.93686
Monroe,Product1,925169265,Kenneth,Jackson,7000,154.06,90.93,1078420,636510,441910,41.31862,-74.17588
Brewster,Product1,298228013,Shara,Livingston,1151,154.06,90.93,177323.06,104660.43,72662.63,41.42067,-73.57661
Eastchester,Product1,123003375,Ethyl,Olivas,8287,651.21,524.96,5396577.27,4350343.52,1046233.75,40.95287,-73.81557
Harrison,Product1,972981679,Ozie,Barrientos,5755,152.58,97.44,878097.9,560767.2,317330.7,40.96605,-73.71702
Larchmont,Product1,791961753,Apryl,Sparkman,7937,47.45,31.79,376610.65,252317.23,124293.42,40.94142,-73.76436
Bedford Hills,Product1,744054925,Dorsey,Heilman,1242,668.27,502.54,829991.34,624154.68,205836.66,41.22251,-73.71532
New Rochelle,Product1,263685023,Theo,Posey,9113,651.21,524.96,5934476.73,4783960.48,1150516.25,40.91212,-73.78289
Peekskill,Product2,205588376,Tracy,Adkins,7024,255.28,159.42,1793086.72,1119766.08,673320.64,41.29632,-73.89549
Pleasantville,Product1,594813811,Alberto,Herrick,7480,81.73,56.67,611340.4,423891.6,187448.8,41.13582,-73.79182
Rye,Product2,176722657,Rick,Bedard,5016,109.28,35.84,548148.48,179773.44,368375.04,40.98291,-73.68445
Tarrytown,Product1,466988742,Jake,Dahl,1201,81.73,56.67,98157.73,68060.67,30097.06,41.06317,-73.86219
White Plains,Product1,801598393,Giuseppina,Buffington,9633,81.73,56.67,787305.09,545902.11,241402.98,40.99222,-73.74618
White Plains,Product1,586850440,Adolfo,Bruner,941,421.89,364.69,396998.49,343173.29,53825.2,41.02233,-73.75882
White Plains,Product1,649356210,Majorie,Loya,7787,152.58,97.44,1188140.46,758765.28,429375.18,41.05265,-73.76996
Somers,Product2,986039531,Lela,Rudd,9864,205.7,117.11,2029024.8,1155173.04,873851.76,41.33196,-73.68042
Islip,Product1,314136731,Everett,Higgins,8894,668.27,502.54,5943593.38,4469590.76,1474002.62,40.72931,-73.21308
Merrick,Product2,121196639,Nestor,Dabney,3634,47.45,31.79,172433.3,115524.86,56908.44,40.66665,-73.55345
New York City,Product1,615080583,Clarice,Winters,4868,205.7,117.11,1001347.6,570091.48,431256.12,40.70772,-74.01012
East Meadow,Product1,273962390,Humberto,Toler,414,9.33,6.92,3862.62,2864.88,997.74,40.72477,-73.54492
Yonkers,Product1,796328389,Fredrick,Settle,121,81.73,56.67,9889.33,6857.07,3032.26,40.92689,-73.85713
Manhasset,Product1,350977408,Amira,Worrell,869,437.2,263.33,379926.8,228833.77,151093.03,40.79708,-73.66939
New York City,Product1,327020776,Tonda,Proctor,1570,109.28,35.84,171569.6,56268.8,115300.8,40.71415,-73.99753
Hicksville,Product2,383882319,Sal,Flynn,8164,154.06,90.93,1257745.84,742352.52,515393.32,40.77862,-73.53056
New York City,Product1,701298367,Melissa,Crooks,8626,81.73,56.67,705002.98,488835.42,216167.56,40.86836,-73.90157
Brooklyn,Product1,629317748,Rocio,Oakes,7961,9.33,6.92,74276.13,55090.12,19186.01,,
Rochester,Product1,938301789,Margaret,Grover,3205,255.28,159.42,818172.4,510941.1,307231.3,43.15711,-77.60666
Syracuse,Product1,668924319,Mahalia,Sturm,8426,154.06,90.93,1298109.56,766176.18,531933.38,43.04832,-76.23206
De Witt,Product1,282171666,Eliz,Dietz,9721,109.28,35.84,1062310.88,348400.64,713910.24,43.03523,-76.06748
Syracuse,Product2,309342658,Irving,Blake,222,81.73,56.67,18144.06,12580.74,5563.32,43.08165,-76.10378
Minoa,Product1,902048623,Rich,Mcclendon,5088,437.2,263.33,2224473.6,1339823.04,884650.56,43.07763,-76.00092
Oneida,Product1,482213389,Elden,Daniels,6513,109.28,35.84,711740.64,233425.92,478314.72,43.09494,-75.65184
Oswego,Product1,692073285,Cameron,Michaels,8719,154.06,90.93,1343249.14,792818.67,550430.47,43.45603,-76.51095
Liverpool,Product1,544177138,Bert,Stegall,2963,9.33,6.92,27644.79,20503.96,7140.83,43.09146,-76.17007
Syracuse,Product1,471386277,Mittie,Folk,2530,154.06,90.93,389771.8,230052.9,159718.9,43.05641,-76.14037
Syracuse,Product1,976874530,Lupe,Cummings,7737,81.73,56.67,632345.01,438455.79,193889.22,43.04346,-76.13653
Manlius,Product1,384128224,Darren,Poole,933,668.27,502.54,623495.91,468869.82,154626.09,43.00564,-75.98423
Cicero,Product1,686946189,Jamaal,Cummins,1498,81.73,56.67,122431.54,84891.66,37539.88,43.15179,-76.12463
Syracuse,Product1,799439752,Roger,Braxton,843,152.58,97.44,128624.94,82141.92,46483.02,43.04874,-76.15296
Rochester,Product1,606032741,Timika,Brice,7410,205.7,117.11,1524237,867785.1,656451.9,43.12933,-77.56781
Brockport,Product1,511461484,Lazaro,Royer,1674,47.45,31.79,79431.3,53216.46,26214.84,43.21519,-77.93859
Canandaigua,Product1,990774810,Latasha,Blevins,1138,668.27,502.54,760491.26,571890.52,188600.74,42.88582,-77.28012
Rochester,Product1,339334046,Felton,Nail,5340,152.58,97.44,814777.2,520329.6,294447.6,43.24174,-77.62017
Rochester,Product1,522813022,Jeff,Helm,846,81.73,56.67,69143.58,47942.82,21200.76,43.08942,-77.6101
Irondequoit,Product2,427198064,Peter,Amos,6255,9.33,6.92,58359.15,43284.6,15074.55,43.21067,-77.59862
Macedon,Product2,808788001,Alesia,Coward,7197,47.45,31.79,341497.65,228792.63,112705.02,43.06925,-77.28757
Webster,Product1,244194161,Enedina,Fair,1334,421.89,364.69,562801.26,486496.46,76304.8,43.19285,-77.50225
East Rochester,Product1,980340373,Wyatt,Mccants,3357,9.33,6.92,31320.81,23230.44,8090.37,43.10297,-77.48247
Rochester,Product1,384462964,Raleigh,Rainey,9990,47.45,31.79,474025.5,317582.1,156443.4,43.14573,-77.59227
Rochester,Product1,394110763,Penney,Temple,4988,154.06,90.93,768451.28,453558.84,314892.44,43.14953,-77.636
Rochester,Product1,767145097,Homer,Burk,4137,437.2,263.33,1808696.4,1089396.21,719300.19,43.16011,-77.54862
Fairport,Product1,431739795,Catrice,Tolbert,254,9.33,6.92,2369.82,1757.68,612.14,43.1292,-77.44129
Irondequoit,Product1,636381185,Elisha,Zink,8189,205.7,117.11,1684477.3,959013.79,725463.51,43.20259,-77.56499
Fairport,Product1,899868094,Rufus,Hinojosa,9821,9.33,6.92,91629.93,67961.32,23668.61,43.07051,-77.44241
Rochester,Product1,361311852,Efrain,Kahn,9061,255.28,159.42,2313092.08,1444504.62,868587.46,43.20629,-77.69435
Pittsford,Product1,930136287,Cliff,Corrigan,6852,47.45,31.79,325127.4,217825.08,107302.32,43.09014,-77.51318
Rochester,Product1,536077725,Hal,Mccormick,6167,205.7,117.11,1268551.9,722217.37,546334.53,43.13186,-77.68724
Williamson,Product1,779184997,Elena,Yang,7011,152.58,97.44,1069738.38,683151.84,386586.54,43.20942,-77.18437
Rochester,Product1,179819428,Frederick,Carbone,1420,437.2,263.33,620824,373928.6,246895.4,43.12603,-77.63142
Rochester,Product1,928654849,Laurena,Marcus,8461,154.06,90.93,1303501.66,769358.73,534142.93,43.12152,-77.62725
Scottsville,Product1,336677587,Everette,Dailey,9234,255.28,159.42,2357255.52,1472084.28,885171.24,43.02023,-77.74836
Liverpool,Product1,285186469,Londa,Newby,1869,154.06,90.93,287938.14,169948.17,117989.97,43.13601,-76.22642
Rochester,Product1,475792825,Claudio,Montgomery,6525,255.28,159.42,1665702,1040215.5,625486.5,43.14651,-77.71357
Rochester,Product1,680420482,Elliot,Templeton,396,109.28,35.84,43274.88,14192.64,29082.24,43.25217,-77.6964
Webster,Product1,291305768,Carissa,Dalton,2705,9.33,6.92,25237.65,18718.6,6519.05,43.21181,-77.44654
Staten Island,Product1,570997512,Ammie,Hudspeth,9707,255.28,159.42,2478002.96,1547489.94,930513.02,40.55315,-74.19189
New York City,Product2,602357041,Manuel,Brim,9689,81.73,56.67,791881.97,549075.63,242806.34,40.84138,-73.94259
Bridgeport,Product1,438558185,Denice,Cornejo,7967,421.89,364.69,3361197.63,2905485.23,455712.4,41.19223,-73.19738
Bridgeport,Product1,653087270,Raleigh,Soriano,1891,152.58,97.44,288528.78,184259.04,104269.74,41.16995,-73.21084
Fairfield,Product2,989743125,September,Jorgensen,5840,205.7,117.11,1201288,683922.4,517365.6,41.14153,-73.25641
Norwalk,Product1,812637078,Harry,Emanuel,6225,9.33,6.92,58079.25,43077,15002.25,41.09897,-73.4188
Trumbull,Product1,456192958,Orval,Velasco,6489,81.73,56.67,530345.97,367731.63,162614.34,41.25599,-73.21702
Danbury,Product1,775147092,Kelle,Brenner,2105,205.7,117.11,432998.5,246516.55,186481.95,41.41452,-73.4063
Milford,Product1,894548308,Evelia,Kimmel,5578,668.27,502.54,3727610.06,2803168.12,924441.94,41.22554,-73.07122
Fairfield,Product1,459757936,Chong,Hackett,1445,437.2,263.33,631754,380511.85,251242.15,41.18273,-73.25433
Wilton,Product1,986449801,Deshawn,Clegg,1272,421.89,364.69,536644.08,463885.68,72758.4,41.16495,-73.41807
Fairfield,Product1,910610234,Estelle,Kingsley,8659,437.2,263.33,3785714.8,2280174.47,1505540.33,41.16264,-73.28397
Newtown,Product1,538538062,Asa,Mckee,4235,205.7,117.11,871139.5,495960.85,375178.65,41.41458,-73.30159
Darien,Product1,696844613,Wanetta,Batson,661,421.89,364.69,278869.29,241060.09,37809.2,41.08477,-73.46233
Shelton,Product1,482453715,Dudley,Hammer,7630,9.33,6.92,71187.9,52799.6,18388.3,41.27746,-73.12147
Westport,Product1,412601697,Leonel,Romero,6866,651.21,524.96,4471207.86,3604375.36,866832.5,41.14397,-73.36171
New Haven,Product1,174837386,Dirk,Rountree,7123,421.89,364.69,3005122.47,2597686.87,407435.6,41.30935,-72.92335
Westport,Product1,877022111,Travis,Lovelace,9187,81.73,56.67,750853.51,520627.29,230226.22,41.13894,-73.32742
Bridgeport,Product1,997329699,Ray,Bender,876,205.7,117.11,180193.2,102588.36,77604.84,41.20225,-73.18715
Stratford,Product1,434246480,Craig,Morley,2038,152.58,97.44,310958.04,198582.72,112375.32,41.19947,-73.13164
Monroe,Product1,956571280,Billi,Earls,9554,205.7,117.11,1965257.8,1118868.94,846388.86,41.31428,-73.21837
New Canaan,Product1,353415429,Loraine,Bowie,2334,81.73,56.67,190757.82,132267.78,58490.04,41.14704,-73.49212
New Canaan,Product1,984202754,Christopher,Mendes,6321,154.06,90.93,973813.26,574768.53,399044.73,41.14763,-73.49227
Wilton,Product1,328669583,Sanford,Beaudry,9488,47.45,31.79,450205.6,301623.52,148582.08,41.19454,-73.43425
Ridgefield,Product1,436864745,Felipa,Neff,6841,437.2,263.33,2990885.2,1801440.53,1189444.67,41.28963,-73.497
Greenwich,Product1,279149568,Rocky,Collado,5415,668.27,502.54,3618682.05,2721254.1,897427.95,41.03016,-73.62546
Stamford,Product1,696197879,Tara,Needham,9278,205.7,117.11,1908484.6,1086546.58,821938.02,41.05757,-73.53729
Oradell,Product1,348996007,Elton,Willoughby,4529,668.27,502.54,3026594.83,2276003.66,750591.17,40.95482,-74.03151
Morristown,Product2,668842780,Rey,Simons,4297,47.45,31.79,203892.65,136601.63,67291.02,40.78877,-74.47224
Boonton,Product1,907349526,Blair,Kaufman,3743,437.2,263.33,1636439.6,985644.19,650795.41,40.9288,-74.42096
Lake Hiawatha,Product1,386440074,Eduardo,Riddick,5060,81.73,56.67,413553.8,286750.2,126803.6,40.88016,-74.38229
Denville,Product1,748350751,Shaun,Arias,2472,154.06,90.93,380836.32,224778.96,156057.36,40.89353,-74.47684
Florham Park,Product1,105630385,Lanora,Phifer,7233,81.73,56.67,591153.09,409894.11,181258.98,40.78731,-74.39056
Madison,Product1,691140305,Suellen,Denman,2630,437.2,263.33,1149836,692557.9,457278.1,40.75855,-74.41513
New Vernon,Product2,308054339,Nancey,Bond,8980,437.2,263.33,3926056,2364703.4,1561352.6,40.74249,-74.48442
Parsippany,Product1,879858815,Eusebio,Copley,8631,9.33,6.92,80527.23,59726.52,20800.71,40.8617,-74.42637
Montclair,Product1,800352561,Lan,Boyd,963,154.06,90.93,148359.78,87565.59,60794.19,40.81424,-74.21802
Upper Montclair,Product1,783646905,Terry,Eckert,7388,255.28,159.42,1886008.64,1177794.96,708213.68,40.8412,-74.20817
Montclair,Product1,714165675,Demetrius,Desjardins,6348,47.45,31.79,301212.6,201802.92,99409.68,40.8298,-74.20627
Verona,Product2,996645200,Meaghan,Fortney,8317,421.89,364.69,3508859.13,3033126.73,475732.4,40.83177,-74.24552
West Caldwell,Product1,306134307,Pedro,Terrill,799,651.21,524.96,520316.79,419443.04,100873.75,40.85119,-74.29807
Short Hills,Product1,537994325,Adam,Cassell,3331,152.58,97.44,508243.98,324572.64,183671.34,40.72156,-74.3348
Paterson,Product1,957899081,Tomiko,Sands,2480,205.7,117.11,510136,290432.8,219703.2,40.91645,-74.1714
Paramus,Product2,451834905,Joseph,Goss,6844,651.21,524.96,4456881.24,3592826.24,864055,40.94853,-74.06935
Clifton,Product1,676100623,Roberto,Saylor,2054,255.28,159.42,524345.12,327448.68,196896.44,40.8839,-74.1485
River Edge,Product1,207307565,Peggy,Dionne,5770,152.58,97.44,880386.6,562228.8,318157.8,40.9316,-74.03384
Hawthorne,Product1,392379558,Glynis,Harvey,2685,255.28,159.42,685426.8,428042.7,257384.1,40.94949,-74.15524
Wyckoff,Product2,398552930,August,Barrera,9524,437.2,263.33,4163892.8,2507954.92,1655937.88,40.98579,-74.1686
Hackensack,Product1,363376510,Fallon,Maggard,39,651.21,524.96,25397.19,20473.44,4923.75,40.89468,-74.03955
Westfield,Product1,944711625,Hildegarde,Anthony,18,154.06,90.93,2773.08,1636.74,1136.34,40.65332,-74.34667
Hillside,Product1,170732104,Brenton,Lund,2279,668.27,502.54,1522987.33,1145288.66,377698.67,40.69359,-74.23662
Ridgewood,Product1,189924275,Tomika,Jerome,1668,47.45,31.79,79146.6,53025.72,26120.88,40.97959,-74.11838
Summit,Product1,521086966,Colby,Hicks,68,109.28,35.84,7431.04,2437.12,4993.92,40.71672,-74.35614
Palisades Park,Product1,303331506,Len,Arce,1388,421.89,364.69,585583.32,506189.72,79393.6,40.84579,-73.98571
Fort Lee,Product1,546081721,Garry,Dejesus,6571,421.89,364.69,2772239.19,2396377.99,375861.2,40.85103,-73.96942
New York City,Product1,979073941,Julius,Williamson,8591,255.28,159.42,2193110.48,1369577.22,823533.26,40.70615,-74.00859
Montclair,Product1,502356994,Amber,Heck,7453,154.06,90.93,1148209.18,677701.29,470507.89,40.81432,-74.21802
Montclair,Product1,336292207,Porter,Tharp,5192,421.89,364.69,2190452.88,1893470.48,296982.4,40.81478,-74.21706
Paramus,Product1,871553409,Mollie,Boykin,876,81.73,56.67,71595.48,49642.92,21952.56,40.95194,-74.07543
Upper Montclair,Product1,319126927,Gregory,Stroud,5604,81.73,56.67,458014.92,317578.68,140436.24,40.84024,-74.20788
New York City,Product1,560311591,Edgardo,Tuck,7506,154.06,90.93,1156374.36,682520.58,473853.78,40.74187,-73.98724
New York City,Product2,396718728,Teressa,Clemons,6742,81.73,56.67,551023.66,382069.14,168954.52,40.70749,-74.00875
New York City,Product1,500272166,Zenaida,Cavazos,506,9.33,6.92,4720.98,3501.52,1219.46,40.75647,-74.00345
Bronx,Product1,263208234,Stephani,Sowell,8020,152.58,97.44,1223691.6,781468.8,442222.8,40.80867,-73.87187
New York City,Product2,948075759,Len,Boyles,5540,47.45,31.79,262873,176116.6,86756.4,40.75993,-73.98489
New York City,Product1,737736070,Kareem,Santos,1352,205.7,117.11,278106.4,158332.72,119773.68,40.76818,-73.98234
Northport,Product1,585362994,Raymond,Jernigan,773,668.27,502.54,516572.71,388463.42,128109.29,40.90064,-73.34893
New York City,Product1,164442861,Daryl,Treadwell,1152,255.28,159.42,294082.56,183651.84,110430.72,40.74849,-73.99057
Bronx,Product1,118774497,Sol,Sams,6868,651.21,524.96,4472510.28,3605425.28,867085,40.85001,-73.91645
Danbury,Product1,712469232,Thomas,Rhoden,4333,255.28,159.42,1106128.24,690766.86,415361.38,41.42438,-73.48288
Amityville,Product1,479950892,Emmitt,Montague,6989,255.28,159.42,1784151.92,1114186.38,669965.54,40.679,-73.41965
New York City,Product1,275955808,Jarvis,Holliman,311,154.06,90.93,47912.66,28279.23,19633.43,40.75869,-73.98138
Center Moriches,Product1,125532805,Candida,Connors,6802,255.28,159.42,1736414.56,1084374.84,652039.72,40.80041,-72.7943
Lindenhurst,Product1,574043214,Shanita,Tilton,998,109.28,35.84,109061.44,35768.32,73293.12,40.68481,-73.37126
Purchase,Product1,437160861,Fredia,Chism,4468,81.73,56.67,365169.64,253201.56,111968.08,41.03567,-73.71387
Morristown,Product1,850872075,Ivey,Thorp,810,255.28,159.42,206776.8,129130.2,77646.6,40.78877,-74.47224
New York City,Product1,321475684,Patrick,Dominquez,654,152.58,97.44,99787.32,63725.76,36061.56,40.68879,-74.0191
Bronx,Product1,575583016,Latrina,Calderon,6660,651.21,524.96,4337058.6,3496233.6,840825,40.88801,-73.90757
Southampton,Product1,710117900,Rae,Dodge,8522,421.89,364.69,3595346.58,3107888.18,487458.4,40.886,-72.39182
Sterling Forest,Product1,342316663,Aracely,Ashby,7962,9.33,6.92,74285.46,55097.04,19188.42,41.18365,-74.31351
Utica,Product1,959728133,Roxana,Medeiros,3737,437.2,263.33,1633816.4,984064.21,649752.19,43.14793,-75.16837
Patterson,Product1,970213639,Bernardina,Beatty,6631,154.06,90.93,1021571.86,602956.83,418615.03,41.4959,-73.59164
Greenwich,Product1,651947009,Gaston,Coyle,4463,205.7,117.11,918039.1,522661.93,395377.17,41.0255,-73.6242
Mohegan Lake,Product1,803414571,Annemarie,Fair,7080,154.06,90.93,1090744.8,643784.4,446960.4,41.31134,-73.84706
Houston,Product1,493415153,Tangela,Speight,1363,9.33,6.92,12716.79,9431.96,3284.83,29.75917,-95.36334
Houston,Product2,211060082,Margorie,Pace,6223,668.27,502.54,4158644.21,3127306.42,1031337.79,29.76398,-95.36201
Spring,Product2,515773189,Cornelius,Mcvey,7603,421.89,364.69,3207629.67,2772738.07,434891.6,30.13594,-95.46871
Spring,Product1,687290799,Wiley,Phifer,3475,651.21,524.96,2262954.75,1824236,438718.75,30.13594,-95.46871
Houston,Product1,975661742,Nettie,Peck,8846,9.33,6.92,82533.18,61214.32,21318.86,29.65071,-95.56772
Katy,Product1,351247346,Faustino,Levy,750,81.73,56.67,61297.5,42502.5,18795,29.77967,-95.75194
Houston,Product1,554721438,Shiela,Leggett,3256,47.45,31.79,154497.2,103508.24,50988.96,30.01977,-95.44004
Houston,Product1,247070348,Rosaria,Caraway,2461,109.28,35.84,268938.08,88202.24,180735.84,29.96969,-95.53134
Houston,Product1,859592902,Liz,Harness,1497,421.89,364.69,631569.33,545940.93,85628.4,29.84238,-95.38446
Houston,Product1,743900430,Johanne,Pederson,5523,154.06,90.93,850873.38,502206.39,348666.99,29.84238,-95.38446
Houston,Product1,121916759,Frank,Mcnabb,6733,668.27,502.54,4499461.91,3383601.82,1115860.09,29.73817,-95.41875
Houston,Product1,635878217,Giovanni,Carrion,9350,81.73,56.67,764175.5,529864.5,234311,29.73617,-95.41879
Houston,Product1,398333632,Stanton,Araujo,4629,205.7,117.11,952185.3,542102.19,410083.11,29.80288,-95.40687
Houston,Product1,742144334,Merlin,Kendrick,5855,437.2,263.33,2559806,1541797.15,1018008.85,29.8038,-95.40598
Houston,Product1,370484149,Mica,Saavedra,3348,47.45,31.79,158862.6,106432.92,52429.68,29.67271,-95.28743
Houston,Product1,306839406,Yaeko,Lemay,9454,255.28,159.42,2413417.12,1507156.68,906260.44,29.71154,-95.39956
Houston,Product1,745008933,Scot,Alicea,3554,9.33,6.92,33158.82,24593.68,8565.14,29.74991,-95.48306
Houston,Product1,599104058,Zackary,Wingfield,7059,154.06,90.93,1087509.54,641874.87,445634.67,29.73153,-95.466
Houston,Product1,653548610,Whitney,Homan,8412,47.45,31.79,399149.4,267417.48,131731.92,29.69276,-95.401
Houston,Product1,413078916,America,Moyer,8086,154.06,90.93,1245729.16,735259.98,510469.18,29.73678,-95.55905
Houston,Product1,352743804,Roberto,Furr,3585,154.06,90.93,552305.1,325984.05,226321.05,29.89115,-95.41173
Houston,Product1,567904603,Alfred,Strother,4447,255.28,159.42,1135230.16,708940.74,426289.42,29.91856,-95.61193
Houston,Product1,324235141,Daniele,Hodges,7238,152.58,97.44,1104374.04,705270.72,399103.32,29.59389,-95.22545
Houston,Product1,307721745,Alonzo,Mcknight,558,152.58,97.44,85139.64,54371.52,30768.12,29.57513,-95.1081
Houston,Product1,374663245,Altha,Ashcraft,35,651.21,524.96,22792.35,18373.6,4418.75,29.8658,-95.4885
Houston,Product1,901670968,Rodrigo,Hannan,3331,154.06,90.93,513173.86,302887.83,210286.03,29.75863,-95.62541
Houston,Product1,535668742,Maximina,Aiken,5139,152.58,97.44,784108.62,500744.16,283364.46,29.67561,-95.54493
Houston,Product1,243892896,Eboni,Rosen,2183,668.27,502.54,1458833.41,1097044.82,361788.59,29.70872,-95.64426
Kingwood,Product1,163892257,Ellena,Jobe,8216,109.28,35.84,897844.48,294461.44,603383.04,30.04978,-95.24074
Pasadena,Product1,953528153,Gaston,Silvers,9025,668.27,502.54,6031136.75,4535423.5,1495713.25,29.65099,-95.18461
Houston,Product1,640974414,Ronny,Regan,7428,9.33,6.92,69303.24,51401.76,17901.48,29.75789,-95.37016
Conroe,Product1,474717366,Humberto,Toro,8273,255.28,159.42,2111931.44,1318881.66,793049.78,30.31616,-95.47426
Sugar Land,Product1,873555839,Lai,Byrnes,3440,421.89,364.69,1451301.6,1254533.6,196768,29.59631,-95.61695
Friendswood,Product1,976601159,Samatha,Underhill,6840,205.7,117.11,1406988,801032.4,605955.6,29.52636,-95.19727
Mcallen,Product1,893277156,Gayla,Scoggins,9416,9.33,6.92,87851.28,65158.72,22692.56,26.20206,-98.23039
Bellaire,Product1,353320157,Nelle,Shockley,4141,437.2,263.33,1810445.2,1090449.53,719995.67,29.71191,-95.46064
Houston,Product1,956778991,Emory,Windsor,1020,255.28,159.42,260385.6,162608.4,97777.2,29.84183,-95.64573
Houston,Product2,324014985,Dewitt,Burns,2089,255.28,159.42,533279.92,333028.38,200251.54,29.61812,-95.21335
Houston,Product1,645701968,Ethan,Marlowe,6416,205.7,117.11,1319771.2,751377.76,568393.44,29.61853,-95.21297
Houston,Product3,132826268,Lala,Montero,5099,9.33,6.92,47573.67,35285.08,12288.59,29.70054,-95.29661
Houston,Product1,666686713,Cathie,Dietz,6269,421.89,364.69,2644828.41,2286241.61,358586.8,29.73892,-95.44169
Houston,Product1,148894631,Olinda,Roby,85,651.21,524.96,55352.85,44621.6,10731.25,29.65595,-95.50766
Houston,Product1,151373851,Jackie,Esposito,3741,47.45,31.79,177510.45,118926.39,58584.06,29.58185,-95.15429
Houston,Product1,966360700,Willian,Hogg,6461,81.73,56.67,528057.53,366144.87,161912.66,29.57513,-95.1081
Houston,Product1,256404006,Pearly,Stafford,4498,255.28,159.42,1148249.44,717071.16,431178.28,29.79873,-95.27351
Humble,Product1,704365098,Hugh,Ybarra,6140,668.27,502.54,4103177.8,3085595.6,1017582.2,30.00312,-95.26936
The Woodlands,Product1,563417804,Benton,Steed,6703,255.28,159.42,1711141.84,1068592.26,642549.58,30.16676,-95.50223
Brownsville,Product1,407048451,Willian,Osteen,3537,154.06,90.93,544910.22,321619.41,223290.81,25.95149,-97.49643
Brownsville,Product1,879055869,Stephaine,Harlan,1021,47.45,31.79,48446.45,32457.59,15988.86,25.92197,-97.48649
Houston,Product2,443551385,Kortney,Tabor,5566,255.28,159.42,1420888.48,887331.72,533556.76,29.77682,-95.31581
Austin,Product1,334958827,Roxanne,Mcdaniels,615,81.73,56.67,50263.95,34852.05,15411.9,30.35858,-97.73624
Austin,Product1,508014523,Cyndy,Goldsmith,1642,109.28,35.84,179437.76,58849.28,120588.48,30.26202,-97.80903
Austin,Product1,987767302,Judson,Comer,1150,651.21,524.96,748891.5,603704,145187.5,30.42672,-97.75515
Dallas,Product1,519578492,Toccara,Stinnett,3677,421.89,364.69,1551289.53,1340965.13,210324.4,32.78858,-96.79728
Dallas,Product1,619121921,Elijah,Tolley,789,152.58,97.44,120385.62,76880.16,43505.46,32.78733,-96.79904
Dallas,Product1,622383916,Dusti,Weaver,6086,255.28,159.42,1553634.08,970230.12,583403.96,32.89389,-96.804
Dallas,Product1,835663306,Bud,Beaulieu,197,109.28,35.84,21528.16,7060.48,14467.68,32.83313,-96.7031
Dallas,Product2,285571420,Jewel,Sumpter,5784,81.73,56.67,472726.32,327779.28,144947.04,32.88102,-96.87972
Dallas,Product1,769032084,Tonette,Mccurry,2538,255.28,159.42,647900.64,404607.96,243292.68,32.92236,-96.77229
Dallas,Product1,103281629,Maxwell,Hallman,2184,154.06,90.93,336467.04,198591.12,137875.92,32.86142,-96.76776
Garland,Product1,675868880,Tamekia,Sheldon,3476,205.7,117.11,715013.2,407074.36,307938.84,32.87785,-96.62009
Irving,Product1,894655168,Junita,Race,7200,9.33,6.92,67176,49824,17352,32.85852,-96.93256
Irving,Product1,137814319,Kirstie,Mckee,1174,9.33,6.92,10953.42,8124.08,2829.34,32.85924,-96.93534
Irving,Product1,103832662,Raymon,Cromwell,5247,255.28,159.42,1339454.16,836476.74,502977.42,32.8138,-96.94563
Dallas,Product1,761509025,Gertha,Temple,6298,81.73,56.67,514735.54,356907.66,157827.88,32.84497,-96.78725
Arlington,Product2,799954736,Virgilio,Phillip,3238,47.45,31.79,153643.1,102936.02,50707.08,32.73347,-97.10135
Arlington,Product1,778593623,Lieselotte,Moorman,2010,152.58,97.44,306685.8,195854.4,110831.4,32.73124,-97.10289
Hurst,Product1,877162015,Oda,Walden,588,437.2,263.33,257073.6,154838.04,102235.56,32.84728,-97.18612
Plano,Product1,445708739,Sammie,Weiner,3975,81.73,56.67,324876.75,225263.25,99613.5,33.01986,-96.7953
Dallas,Product2,254595124,Kraig,Cazares,9210,668.27,502.54,6154766.7,4628393.4,1526373.3,32.83488,-96.6753
Dallas,Product1,244494998,Booker,Cotton,358,255.28,159.42,91390.24,57072.36,34317.88,32.81015,-96.8486
Dallas,Product1,876394689,Daron,Loving,3519,205.7,117.11,723858.3,412110.09,311748.21,32.92771,-96.80361
Farmers Branch,Product1,881593024,Ronnie,Boyd,1822,9.33,6.92,16999.26,12608.24,4391.02,32.92209,-96.88179
Farmers Branch,Product1,411701333,Cruz,Bear,428,109.28,35.84,46771.84,15339.52,31432.32,32.92153,-96.88176
Garland,Product1,588643443,Luella,Underwood,1531,255.28,159.42,390833.68,244072.02,146761.66,32.93124,-96.68219
Grand Prairie,Product1,354655683,Hedwig,Halsey,9353,47.45,31.79,443799.85,297331.87,146467.98,32.74593,-96.99607
Richardson,Product1,522286880,Arvilla,Bethea,5149,109.28,35.84,562682.72,184540.16,378142.56,32.95171,-96.73351
Richardson,Product1,624398362,Mikki,Ulrich,2206,651.21,524.96,1436569.26,1158061.76,278507.5,32.95264,-96.73385
Arlington,Product1,264163959,Osvaldo,Courtney,840,47.45,31.79,39858,26703.6,13154.4,32.70643,-97.11584
Colleyville,Product1,465069997,Meta,Beckett,3402,47.45,31.79,161424.9,108149.58,53275.32,32.88343,-97.15389
Fort Worth,Product1,520915305,Dedra,Pendergrass,9270,651.21,524.96,6036716.7,4866379.2,1170337.5,32.66189,-97.27973
Fort Worth,Product1,245811212,Lynetta,Goldberg,9855,47.45,31.79,467619.75,313290.45,154329.3,32.75832,-97.33062
Lewisville,Product1,424181544,Sharice,Mathias,3600,205.7,117.11,740520,421596,318924,33.04338,-97.01677
New Braunfels,Product2,560762631,Hilton,Krause,979,651.21,524.96,637534.59,513935.84,123598.75,29.70225,-98.12528
San Antonio,Product2,230603301,Leroy,Leach,9496,651.21,524.96,6183890.16,4985020.16,1198870,29.51583,-98.4567
San Antonio,Product1,429064881,Joann,Easton,8688,154.06,90.93,1338473.28,789999.84,548473.44,29.39698,-98.48682
San Antonio,Product1,421821200,Santiago,Dolan,5122,668.27,502.54,3422878.94,2574009.88,848869.06,29.39697,-98.48679
San Antonio,Product1,894858586,Rebekah,Bivins,7396,651.21,524.96,4816349.16,3882604.16,933745,29.5121,-98.56836
El Paso,Product1,804475867,Magen,Craddock,1141,47.45,31.79,54140.45,36272.39,17868.06,31.75889,-106.49059
El Paso,Product1,527284371,Emmaline,Orton,4018,255.28,159.42,1025715.04,640549.56,385165.48,31.76695,-106.41907
El Paso,Product1,510207927,Evangelina,Collins,718,47.45,31.79,34069.1,22825.22,11243.88,31.80869,-106.46267
El Paso,Product1,820482861,Jonah,Nesbitt,7967,154.06,90.93,1227396.02,724439.31,502956.71,31.87774,-106.42029
El Paso,Product1,695658004,Lloyd,Faulkner,9517,437.2,263.33,4160832.4,2506111.61,1654720.79,31.75481,-106.319
El Paso,Product1,793594682,Joel,Burleson,1157,437.2,263.33,505840.4,304672.81,201167.59,31.8387,-106.56615
El Paso,Product1,942466723,Alisia,Couture,5702,255.28,159.42,1455606.56,909012.84,546593.72,31.83022,-106.5264
Mcallen,Product1,590760457,Jacinda,Thorp,8002,9.33,6.92,74658.66,55373.84,19284.82,26.25385,-98.2215
Arlington,Product1,157274711,Barabara,Gabbard,9937,651.21,524.96,6471073.77,5216527.52,1254546.25,32.66787,-97.13414
Houston,Product1,581120812,Carmen,Stafford,5417,47.45,31.79,257036.65,172206.43,84830.22,29.72131,-95.37927
Houston,Product3,171722590,Lowell,Spicer,5385,9.33,6.92,50242.05,37264.2,12977.85,29.64481,-95.46365
Houston,Product1,458816373,Rudolf,Ramirez,2815,651.21,524.96,1833156.15,1477762.4,355393.75,29.76009,-95.36372
El Paso,Product1,342450988,Shaunta,Westbrook,7712,47.45,31.79,365934.4,245164.48,120769.92,31.76794,-106.29781
Dallas,Product1,142987763,Dewayne,Lewis,2112,668.27,502.54,1411386.24,1061364.48,350021.76,32.69432,-96.79336
Austin,Product1,251100528,King,Stjohn,5081,109.28,35.84,555251.68,182103.04,373148.64,30.193,-97.76909
Kingwood,Product1,677775609,Xuan,Spicer,7719,437.2,263.33,3374746.8,2032644.27,1342102.53,30.04492,-95.18146
Austin,Product1,604311835,Marni,Tirado,8156,152.58,97.44,1244442.48,794720.64,449721.84,30.22124,-97.83653
Plano,Product1,632320535,Lawanda,Jaime,6553,651.21,524.96,4267379.13,3440062.88,827316.25,33.04513,-96.82756
Round Rock,Product1,533725535,Gilberto,Allison,101,152.58,97.44,15410.58,9841.44,5569.14,30.5205,-97.71931
Plano,Product1,600763165,Yuette,Pollard,8026,81.73,56.67,655964.98,454833.42,201131.56,33.07168,-96.77346
Carrollton,Product1,295982253,Chelsie,Sisco,6581,154.06,90.93,1013868.86,598410.33,415458.53,33.02022,-96.94238
Houston,Product1,502244126,Aurelio,Lamar,4053,421.89,364.69,1709920.17,1478088.57,231831.6,29.73652,-95.46052
Houston,Product3,372722613,Carl,Delong,5759,81.73,56.67,470683.07,326362.53,144320.54,29.70471,-95.55195
Houston,Product1,480904042,Shanna,Volz,9048,152.58,97.44,1380543.84,881637.12,498906.72,29.7293,-95.42928
The Woodlands,Product1,570587241,Linwood,Oaks,8299,668.27,502.54,5545972.73,4170579.46,1375393.27,30.20956,-95.52477
Frisco,Product1,905883538,Donny,Lemke,9925,205.7,117.11,2041572.5,1162316.75,879255.75,33.11988,-96.80546
Houston,Product1,921216762,Ninfa,Baron,7366,154.06,90.93,1134805.96,669790.38,465015.58,29.78374,-95.52161
Mckinney,Product1,571323239,Harrison,Cavazos,6097,154.06,90.93,939303.82,554400.21,384903.61,33.17396,-96.68389
Austin,Product3,781251800,Kelley,Curley,8623,437.2,263.33,3769975.6,2270694.59,1499281.01,30.40533,-97.85313
Allen,Product1,296363770,Winnifred,Hoke,9480,421.89,364.69,3999517.2,3457261.2,542256,33.10084,-96.68391
Irving,Product1,632332980,Elias,Collette,236,154.06,90.93,36358.16,21459.48,14898.68,32.91359,-96.95878
Round Rock,Product1,225145757,Alfonso,Alba,4487,437.2,263.33,1961716.4,1181561.71,780154.69,30.49971,-97.72133
Austin,Product1,281100928,Simone,Rea,2866,152.58,97.44,437294.28,279263.04,158031.24,30.29886,-97.7207
Bee Cave,Product2,726809823,Woodrow,Mccann,8033,152.58,97.44,1225675.14,782735.52,442939.62,30.30359,-97.93349
Nesconset,Product1,659196269,Dario,Spencer,9680,668.27,502.54,6468853.6,4864587.2,1604266.4,40.84398,-73.14464
Fairfield,Product1,595496594,Polly,Armstrong,9530,81.73,56.67,778886.9,540065.1,238821.8,40.89175,-74.26891
Austin,Product1,223259627,Lurline,Roby,6340,437.2,263.33,2771848,1669512.2,1102335.8,30.21564,-97.82931
New York City,Product1,650346696,Charlie,Meehan,894,154.06,90.93,137729.64,81291.42,56438.22,40.70577,-74.00829
Jersey City,Product1,354931628,Theresa,Dalton,1011,81.73,56.67,82629.03,57293.37,25335.66,40.72702,-74.03488
Stamford,Product2,135500752,Contessa,Sheppard,6539,152.58,97.44,997720.62,637160.16,360560.46,41.1059,-73.54814
Newark,Product2,860852897,Sharen,Halverson,4357,205.7,117.11,896234.9,510248.27,385986.63,40.73674,-74.17122
Pomona,Product1,320099389,Adele,Mccallum,3377,154.06,90.93,520260.62,307070.61,213190.01,41.18342,-74.04742
Austin,Product1,872664058,Ha,Matson,9542,651.21,524.96,6213845.82,5009168.32,1204677.5,30.40317,-97.67219
Englewood,Product1,898283231,Fletcher,Ashcraft,825,205.7,117.11,169702.5,96615.75,73086.75,40.89173,-73.97358
Hoboken,Product1,647005736,Nickolas,Lara,2230,205.7,117.11,458711,261155.3,197555.7,40.73776,-74.02851
New Hyde Park,Product1,889192903,Blanche,Chandler,795,47.45,31.79,37722.75,25273.05,12449.7,40.75599,-73.68815
New York City,Product1,665518558,Warren,Coe,585,9.33,6.92,5458.05,4048.2,1409.85,40.78166,-73.95264
Frisco,Product1,436969029,Erich,Mancuso,7701,421.89,364.69,3248974.89,2808477.69,440497.2,33.15302,-96.86251
Dallas,Product1,734843146,Carisa,Drake,5272,437.2,263.33,2304918.4,1388275.76,916642.64,32.8072,-96.79742
Sugar Land,Product2,810752236,Cruz,Emery,8458,154.06,90.93,1303039.48,769085.94,533953.54,29.60851,-95.64177
Houston,Product1,886620128,Vanetta,Mabe,9453,651.21,524.96,6155888.13,4962446.88,1193441.25,29.88104,-95.64529
Princeton,Product1,804683148,Fernanda,Vigil,2480,421.89,364.69,1046287.2,904431.2,141856,40.34881,-74.66284
Pearland,Product2,477490127,Darell,Alderman,8794,668.27,502.54,5876766.38,4419336.76,1457429.62,29.53064,-95.307
Columbus,Product1,337902390,Elaina,Hinojosa,1681,152.58,97.44,256486.98,163796.64,92690.34,40.03334,-82.96386
Columbus,Product1,889093768,Jc,Maas,1458,205.7,117.11,299910.6,170746.38,129164.22,39.93168,-82.96471
Columbus,Product1,454550588,Germaine,Peoples,475,205.7,117.11,97707.5,55627.25,42080.25,39.97184,-82.91539
Columbus,Product1,128071677,Chara,Byrd,8110,109.28,35.84,886260.8,290662.4,595598.4,39.95452,-83.08376
Hilliard,Product1,623768365,Emmett,Herrmann,5776,81.73,56.67,472072.48,327325.92,144746.56,40.03457,-83.15893
Reynoldsburg,Product1,926064479,Burl,Slattery,1913,651.21,524.96,1245764.73,1004248.48,241516.25,39.95519,-82.80773
Columbus,Product1,539696347,Yi,Tamayo,6997,81.73,56.67,571864.81,396519.99,175344.82,40.06054,-82.97794
Columbus,Product1,839712798,Carlos,Lindsey,8532,668.27,502.54,5701679.64,4287671.28,1414008.36,40.02351,-83.05896
Columbus,Product3,121475160,King,English,6054,47.45,31.79,287262.3,192456.66,94805.64,40.08713,-82.98157
Columbus,Product1,350657260,Emmett,Ordonez,6130,109.28,35.84,669886.4,219699.2,450187.2,39.92324,-82.88001
Worthington,Product2,413245427,Tessie,Arriola,7360,9.33,6.92,68668.8,50931.2,17737.6,40.10708,-83.01766
Columbus,Product1,165538489,Clint,Amaral,5372,668.27,502.54,3589946.44,2699644.88,890301.56,39.92743,-83.08962
Whitehall,Product1,884147775,Lacy,Mcgehee,7829,47.45,31.79,371486.05,248883.91,122602.14,39.9554,-82.87348
Columbus,Product1,315997111,Forest,Longoria,9422,437.2,263.33,4119298.4,2481095.26,1638203.14,40.05641,-83.07421
Reynoldsburg,Product1,328322827,Jin,Ackerman,6876,437.2,263.33,3006187.2,1810657.08,1195530.12,39.93934,-82.83027
Columbus,Product1,158673751,Herb,Crouch,3944,152.58,97.44,601775.52,384303.36,217472.16,39.94499,-82.99732
Columbus,Product1,464911210,Hilary,Martinson,6413,152.58,97.44,978495.54,624882.72,353612.82,40.08608,-82.95106
Westerville,Product1,175209033,Charita,Weber,7101,255.28,159.42,1812743.28,1132041.42,680701.86,40.10522,-82.92258
Dublin,Product1,538053548,Teddy,Witherspoon,856,668.27,502.54,572039.12,430174.24,141864.88,40.09614,-83.12507
Gahanna,Product1,172243583,Tim,Sallee,9559,81.73,56.67,781257.07,541708.53,239548.54,40.02061,-82.86642
Mount Sterling,Product1,916890466,Walter,Goldberg,7119,255.28,159.42,1817338.32,1134910.98,682427.34,39.72065,-83.26682
Marysville,Product1,181418025,Latrina,Archuleta,4480,651.21,524.96,2917420.8,2351820.8,565600,40.2368,-83.37286
Circleville,Product1,395562589,Fred,Collazo,4615,47.45,31.79,218981.75,146710.85,72270.9,39.60192,-82.94499
Dublin,Product1,459372985,Lindsey,Rector,7529,255.28,159.42,1922003.12,1200273.18,721729.94,40.10568,-83.09206
Columbus,Product1,693210542,Shandi,Prince,5259,421.89,364.69,2218719.51,1917904.71,300814.8,39.96875,-82.96824
Pickerington,Product1,587749087,Bryce,Joseph,6871,81.73,56.67,561566.83,389379.57,172187.26,39.92794,-82.78771
Sunbury,Product1,153974950,Guadalupe,Noll,3464,9.33,6.92,32319.12,23970.88,8348.24,40.24182,-82.85853
Delaware,Product2,373186957,Emogene,Corrigan,3169,154.06,90.93,488216.14,288157.17,200058.97,40.30093,-83.06759
Newark,Product1,946996438,Quentin,Roach,6145,81.73,56.67,502230.85,348237.15,153993.7,40.05831,-82.40289
Canal Winchester,Product2,747327220,Manda,Goldman,9587,152.58,97.44,1462784.46,934157.28,528627.18,39.8426,-82.80567
Heath,Product2,966415631,Tosha,Shore,2716,668.27,502.54,1815021.32,1364898.64,450122.68,40.0279,-82.44453
Pataskala,Product2,166810500,Basil,Cornell,1789,109.28,35.84,195501.92,64117.76,131384.16,40.00296,-82.67658
Newark,Product1,131373155,Joya,Godfrey,5091,421.89,364.69,2147841.99,1856636.79,291205.2,40.08118,-82.42784
Granville,Product1,913277423,Latrice,Overstreet,7939,154.06,90.93,1223082.34,721893.27,501189.07,40.06813,-82.52057
Columbus,Product1,386009633,Launa,Saucier,7683,81.73,56.67,627931.59,435395.61,192535.98,40.06714,-83.09303
Lancaster,Product1,993368613,Santos,Spruill,8702,81.73,56.67,711214.46,493142.34,218072.12,39.71344,-82.60203
Lancaster,Product1,299465692,Allan,Surratt,7408,651.21,524.96,4824163.68,3888903.68,935260,39.71474,-82.56474
Dublin,Product2,438724696,Sarai,Hatton,7242,154.06,90.93,1115702.52,658515.06,457187.46,40.105,-83.1593
Grove City,Product1,465881955,Marlin,Duong,3678,437.2,263.33,1608021.6,968527.74,639493.86,39.87867,-83.06045
Columbus,Product1,405986297,Stevie,Agee,9222,255.28,159.42,2354192.16,1470171.24,884020.92,39.97362,-83.01031
Columbus,Product2,804399049,Danial,Spaulding,8409,668.27,502.54,5619482.43,4225858.86,1393623.57,40.06767,-83.01925
Delaware,Product1,476794040,Sharee,Lemay,2807,47.45,31.79,133192.15,89234.53,43957.62,40.26462,-83.06921
Columbus,Product1,559157598,Edwin,Stillwell,6014,81.73,56.67,491524.22,340813.38,150710.84,39.98891,-83.04631
Dublin,Product2,457788550,Christian,Bartels,8660,437.2,263.33,3786152,2280437.8,1505714.2,40.10692,-83.16636
Columbus,Product1,999298226,Bruno,Madsen,3407,154.06,90.93,524882.42,309798.51,215083.91,39.97619,-83.00337
Madison,Product1,380610454,Xenia,Peacock,9946,421.89,364.69,4196117.94,3627206.74,568911.2,41.8028,-81.05425
Mentor-On-The-Lake,Product2,918961560,Sadie,Earls,2,255.28,159.42,510.56,318.84,191.72,41.70613,-81.3613
Mentor,Product1,501900374,Dee,Laplante,2329,651.21,524.96,1516668.09,1222631.84,294036.25,41.66269,-81.35485
Wickliffe,Product2,237288224,Milo,Dion,7713,668.27,502.54,5154366.51,3876091.02,1278275.49,41.60473,-81.47592
Willoughby,Product1,403298938,Karrie,Conley,3973,437.2,263.33,1736995.6,1046210.09,690785.51,41.62678,-81.42705
Willowick,Product1,898418843,Annetta,Martins,955,152.58,97.44,145713.9,93055.2,52658.7,41.65237,-81.44222
Painesville,Product1,791446769,Shiloh,Church,5541,152.58,97.44,845445.78,539915.04,305530.74,41.69727,-81.27991
Willoughby Hills,Product1,571494042,Lacy,Camacho,6642,47.45,31.79,315162.9,211149.18,104013.72,41.58243,-81.48754
Eastlake,Product1,797984492,Latricia,Kelly,199,437.2,263.33,87002.8,52402.67,34600.13,41.64256,-81.43595
Perry,Product1,750654447,Olin,Drury,4187,437.2,263.33,1830556.4,1102562.71,727993.69,41.7683,-81.1445
Mentor,Product1,679552733,Ines,Speed,3610,109.28,35.84,394500.8,129382.4,265118.4,41.67414,-81.32304
Painesville,Product2,455040681,Ernest,Bonner,5504,154.06,90.93,847946.24,500478.72,347467.52,41.72376,-81.24447
Beachwood,Product1,917792117,Georgiann,Hensley,3938,109.28,35.84,430344.64,141137.92,289206.72,41.4645,-81.5183
Lyndhurst,Product2,728793370,Kortney,Michaud,5009,437.2,263.33,2189934.8,1319019.97,870914.83,41.51994,-81.48485
Euclid,Product1,419343268,Roselee,Cecil,1847,9.33,6.92,17232.51,12781.24,4451.27,41.61198,-81.52299
Pepper Pike,Product1,141053140,Ming,Holcomb,9613,205.7,117.11,1977394.1,1125778.43,851615.67,41.46228,-81.4591
Bedford Heights,Product2,115846812,Stefania,Couch,501,205.7,117.11,103055.7,58672.11,44383.59,41.41223,-81.52734
North Olmsted,Product1,185960614,Paige,Scanlon,8733,9.33,6.92,81478.89,60432.36,21046.53,41.41966,-81.90163
Independence,Product1,263943374,Cynthia,Burchfield,5565,668.27,502.54,3718922.55,2796635.1,922287.45,41.39656,-81.64551
Westlake,Product1,782656419,Ollie,Totten,4282,651.21,524.96,2788481.22,2247878.72,540602.5,41.46398,-81.9488
Chardon,Product1,445273578,Marc,Shannon,5201,651.21,524.96,3386943.21,2730316.96,656626.25,41.58342,-81.20418
Chesterland,Product1,275281178,Bart,Angel,673,651.21,524.96,438264.33,353298.08,84966.25,41.51818,-81.38505
Chagrin Falls,Product1,466478049,Brandon,Vandyke,76,9.33,6.92,709.08,525.92,183.16,41.3911,-81.33876
Cleveland Heights,Product1,832975518,Arlie,Christy,4821,421.89,364.69,2033931.69,1758170.49,275761.2,41.50107,-81.59479
Seven Hills,Product1,359197413,Deandrea,Barnhill,3352,255.28,159.42,855698.56,534375.84,321322.72,41.35586,-81.68458
Berea,Product1,349880063,Palmer,Ogle,6141,255.28,159.42,1567674.48,978998.22,588676.26,41.37214,-81.86863
Cleveland,Product2,380072295,Ronny,Sewell,693,437.2,263.33,302979.6,182487.69,120491.91,41.45013,-81.81855
Lorain,Product1,545135438,Linwood,Matlock,6545,668.27,502.54,4373827.15,3289124.3,1084702.85,41.45263,-82.16627
Sheffield Lake,Product1,110743319,Sindy,Youngblood,264,255.28,159.42,67393.92,42086.88,25307.04,41.48946,-82.11308
Lorain,Product1,662882268,Reyes,Mohr,449,437.2,263.33,196302.8,118235.17,78067.63,41.4187,-82.20888
Lorain,Product1,257851111,Rubin,Wilbanks,2729,421.89,364.69,1151337.81,995239.01,156098.8,41.42724,-82.11728
Strongsville,Product1,172261178,Kandi,Ziegler,4765,255.28,159.42,1216409.2,759636.3,456772.9,41.31051,-81.83513
Cleveland,Product1,853036296,Gerard,Mcneal,1251,81.73,56.67,102244.23,70894.17,31350.06,41.49472,-81.62442
Medina,Product1,567412793,Hershel,Lavoie,8910,9.33,6.92,83130.3,61657.2,21473.1,41.15607,-81.85741
Akron,Product2,352939498,Jermaine,Tyree,1495,109.28,35.84,163373.6,53580.8,109792.8,41.11147,-81.46606
Barberton,Product1,867477738,Tom,Dancy,4795,109.28,35.84,523997.6,171852.8,352144.8,41.01038,-81.58941
Akron,Product1,139201343,Kaye,Newton,1625,437.2,263.33,710450,427911.25,282538.75,41.02866,-81.49142
Akron,Product2,316596639,Kizzy,Alves,6836,9.33,6.92,63779.88,47305.12,16474.76,41.07723,-81.49743
Norton,Product2,918462455,Malik,Wenger,2305,47.45,31.79,109372.25,73275.95,36096.3,41.02537,-81.63818
Cuyahoga Falls,Product2,183910119,Ute,Peeler,1946,437.2,263.33,850791.2,512440.18,338351.02,41.14634,-81.47485
Akron,Product1,922363460,Reita,Frederick,6700,109.28,35.84,732176,240128,492048,41.03201,-81.42811
Twinsburg,Product1,163558804,Lacy,Winchester,9540,668.27,502.54,6375295.8,4794231.6,1581064.2,41.31106,-81.44024
Akron,Product1,407544982,Roland,Desimone,472,9.33,6.92,4403.76,3266.24,1137.52,41.2016,-81.63791
Akron,Product1,174683320,Van,Horne,1531,421.89,364.69,645913.59,558340.39,87573.2,40.95196,-81.56739
Wadsworth,Product1,755647647,Frieda,Ragsdale,1786,668.27,502.54,1193530.22,897536.44,295993.78,41.04385,-81.72877
Brunswick,Product1,361424291,Amparo,Carrillo,2334,421.89,364.69,984691.26,851186.46,133504.8,41.23836,-81.80286
Akron,Product1,873312079,Leida,Rosser,1306,255.28,159.42,333395.68,208202.52,125193.16,41.11199,-81.57465
Ravenna,Product1,192922341,Detra,Catron,8863,47.45,31.79,420549.35,281754.77,138794.58,41.15767,-81.24459
Aurora,Product1,792178905,Kasey,Pleasant,2197,205.7,117.11,451922.9,257290.67,194632.23,41.31735,-81.35538
Mantua,Product1,263318097,Bobby,Sorenson,531,255.28,159.42,135553.68,84652.02,50901.66,41.28463,-81.22397
Randolph,Product1,768888747,Cinthia,Hand,122,651.21,524.96,79447.62,64045.12,15402.5,41.03241,-81.24822
Kent,Product1,491752183,Jenny,Burroughs,9254,668.27,502.54,6184170.58,4650505.16,1533665.42,41.13765,-81.35556
Stow,Product1,385082232,Kiana,Ralph,3245,9.33,6.92,30275.85,22455.4,7820.45,41.15521,-81.40022
Akron,Product1,122365224,Margart,Cosgrove,9444,421.89,364.69,3984329.16,3444132.36,540196.8,41.0836,-81.51752
Canton,Product1,347399985,Daron,Mcmaster,2231,668.27,502.54,1490910.37,1121166.74,369743.63,40.84758,-81.43441
Alliance,Product1,424297845,Weston,Chow,8016,47.45,31.79,380359.2,254828.64,125530.56,40.90162,-81.09067
Hartville,Product1,687482631,Sook,Devlin,243,651.21,524.96,158244.03,127565.28,30678.75,40.96781,-81.34575
Alliance,Product1,191690671,Luanna,Bravo,4384,437.2,263.33,1916684.8,1154438.72,762246.08,40.90181,-81.12282
Akron,Product1,761970794,Randy,Gordon,2945,205.7,117.11,605786.5,344888.95,260897.55,41.13242,-81.6188
Canton,Product1,243684327,Lashawnda,Yee,462,255.28,159.42,117939.36,73652.04,44287.32,40.79818,-81.37498
Minerva,Product2,152505099,Miss,Hargis,8503,109.28,35.84,929207.84,304747.52,624460.32,40.72871,-81.1044
North Canton,Product1,724419438,Kristopher,Collette,665,205.7,117.11,136790.5,77878.15,58912.35,40.87775,-81.40253
Canton,Product1,465726172,Shawanna,Gagnon,7579,668.27,502.54,5064818.33,3808750.66,1256067.67,40.83161,-81.3852
Louisville,Product1,203036630,Aldo,Nguyen,1905,255.28,159.42,486308.4,303695.1,182613.3,40.83762,-81.2601
Canton,Product1,833274638,Buck,Noyes,3337,421.89,364.69,1407846.93,1216970.53,190876.4,40.87277,-81.3344
Wooster,Product1,173676526,Jacalyn,Briggs,3598,668.27,502.54,2404435.46,1808138.92,596296.54,40.7984,-81.94158
Wooster,Product2,611791121,Emilio,Hoyle,1443,152.58,97.44,220172.94,140605.92,79567.02,40.8245,-81.93198
Uniontown,Product1,555479753,Karl,Nunez,7658,437.2,263.33,3348077.6,2016581.14,1331496.46,40.97681,-81.40693
Medina,Product1,282916247,Kennith,Dasilva,59,47.45,31.79,2799.55,1875.61,923.94,41.13619,-81.8052
Hudson,Product1,592586934,Billy,Kyle,8497,205.7,117.11,1747832.9,995083.67,752749.23,41.23995,-81.44967
Mansfield,Product1,553290641,Shelley,Rojas,9851,109.28,35.84,1076517.28,353059.84,723457.44,40.75935,-82.56409
Mansfield,Product1,654138696,Chasity,Guido,3031,109.28,35.84,331227.68,108631.04,222596.64,40.72991,-82.53724
Mansfield,Product1,554554927,Trevor,Jacob,3981,205.7,117.11,818891.7,466214.91,352676.79,40.77054,-82.48562
Mount Gilead,Product1,434275662,Cathrine,Champagne,674,651.21,524.96,438915.54,353823.04,85092.5,40.5494,-82.82835
Ashland,Product2,543349730,Henry,Phipps,8115,81.73,56.67,663238.95,459877.05,203361.9,40.85574,-82.33352
Youngstown,Product1,752138459,Santo,Byrd,3339,255.28,159.42,852379.92,532303.38,320076.54,41.10069,-80.6506
Poland,Product1,101315677,Carline,Sharkey,415,154.06,90.93,63934.9,37735.95,26198.95,41.02498,-80.61555
Youngstown,Product2,851867711,Davida,Pemberton,5441,205.7,117.11,1119213.7,637195.51,482018.19,41.10252,-80.72816
Youngstown,Product1,835093390,Valentin,Purvis,1547,81.73,56.67,126436.31,87668.49,38767.82,41.07015,-80.65859
Boardman,Product1,202604043,Cristobal,Bone,3893,205.7,117.11,800790.1,455909.23,344880.87,41.02453,-80.67406
Youngstown,Product1,976323497,Art,Dubose,4674,47.45,31.79,221781.3,148586.46,73194.84,41.09956,-80.76459
Canfield,Product1,298488080,Dale,Sipes,8111,437.2,263.33,3546129.2,2135869.63,1410259.57,41.02586,-80.761
Warren,Product1,781646621,Stevie,Parkinson,5460,47.45,31.79,259077,173573.4,85503.6,41.28275,-80.84499
Girard,Product1,158660447,Andrea,Bueno,7,9.33,6.92,65.31,48.44,16.87,41.15398,-80.7017
Salem,Product1,732703387,Sherrell,Kasper,2069,47.45,31.79,98174.05,65773.51,32400.54,40.90126,-80.85538
Columbiana,Product1,827261769,Angelina,Fredrick,3996,47.45,31.79,189610.2,127032.84,62577.36,40.88917,-80.69364
East Liverpool,Product1,636134421,Werner,Griffis,5166,47.45,31.79,245126.7,164227.14,80899.56,40.6732,-80.57728
Warren,Product1,873432672,Zula,Romeo,6992,668.27,502.54,4672543.84,3513759.68,1158784.16,41.23968,-80.74048
Newton Falls,Product1,523580348,Edwin,Desimone,7915,109.28,35.84,864951.2,283673.6,581277.6,41.18821,-80.97818
Warren,Product1,891313779,Serina,Werner,8409,81.73,56.67,687267.57,476538.03,210729.54,41.23411,-80.8339
Youngstown,Product1,651681792,Florentino,Mclain,5979,109.28,35.84,653385.12,214287.36,439097.76,41.15308,-80.66494
Niles,Product1,800045716,Jamie,Jansen,161,81.73,56.67,13158.53,9123.87,4034.66,41.21094,-80.75273
Marietta,Product1,602079379,Maisie,Lorenzo,7523,651.21,524.96,4899052.83,3949274.08,949778.75,39.41502,-81.45496
Marietta,Product1,743769109,Ahmad,Petit,6662,154.06,90.93,1026347.72,605775.66,420572.06,39.44114,-81.46006
Marietta,Product1,181413733,Verlene,Andres,3210,668.27,502.54,2145146.7,1613153.4,531993.3,39.41137,-81.43047
Belpre,Product1,191624581,Tarsha,Webster,4827,9.33,6.92,45035.91,33402.84,11633.07,39.27435,-81.56945
Coshocton,Product1,321325480,Darell,Runyon,6205,9.33,6.92,57892.65,42938.6,14954.05,40.27332,-81.86521
West Lafayette,Product1,637752759,Oliver,Grimes,4069,651.21,524.96,2649773.49,2136062.24,513711.25,40.27574,-81.75275
Dresden,Product1,378455245,Moses,Hutchinson,2172,109.28,35.84,237356.16,77844.48,159511.68,40.11596,-82.00808
Dover,Product1,201294267,Julio,Grice,6302,152.58,97.44,961559.16,614066.88,347492.28,40.52022,-81.47955
Newcomerstown,Product1,834443652,Tristan,Boggs,9275,421.89,364.69,3913029.75,3382499.75,530530,40.27566,-81.60796
New Philadelphia,Product1,826389729,Jong,Seibert,5940,205.7,117.11,1221858,695633.4,526224.6,40.48948,-81.44435
Uhrichsville,Product1,595931327,Jeane,Deyoung,8177,154.06,90.93,1259748.62,743534.61,516214.01,40.39118,-81.34602
Dover,Product1,182179772,Lon,Sharkey,9898,81.73,56.67,808963.54,560919.66,248043.88,40.54931,-81.49469
Athens,Product2,594558894,Domingo,Storm,2044,9.33,6.92,19070.52,14144.48,4926.04,39.32915,-82.10109
Athens,Product1,662805020,Jae,Shipman,7589,421.89,364.69,3201723.21,2767632.41,434090.8,39.31998,-82.10519
Athens,Product1,186966979,Sherman,Lawton,6539,668.27,502.54,4369817.53,3286109.06,1083708.47,39.33703,-82.06911
Zanesville,Product1,387406098,Ivelisse,Nealy,928,109.28,35.84,101411.84,33259.52,68152.32,39.94011,-82.00718
Zanesville,Product1,754796206,Cynthia,Ponce,9826,47.45,31.79,466243.7,312368.54,153875.16,39.98543,-82.01905
Marion,Product1,400123631,Norbert,Byars,4329,47.45,31.79,205411.05,137618.91,67792.14,40.58854,-83.13044
Marion,Product1,304687201,Jody,Pool,2569,47.45,31.79,121899.05,81668.51,40230.54,40.56741,-83.12128
Marion,Product2,170098245,Elly,Banuelos,4705,421.89,364.69,1984992.45,1715866.45,269126,40.58107,-83.08672
Upper Sandusky,Product1,668280589,Anton,Lovett,7932,421.89,364.69,3346431.48,2892721.08,453710.4,40.83073,-83.28129
Loveland,Product1,291470563,Leonor,Croteau,1472,81.73,56.67,120306.56,83418.24,36888.32,39.2653,-84.26709
Milford,Product1,302216994,Hilton,Hawks,1579,9.33,6.92,14732.07,10926.68,3805.39,39.1743,-84.27786
Williamsburg,Product1,683381211,Jenifer,Mulligan,6542,205.7,117.11,1345689.4,766133.62,579555.78,39.05451,-84.05397
Cincinnati,Product1,588137042,Elvira,New,1675,651.21,524.96,1090776.75,879308,211468.75,39.07192,-84.31491
Cincinnati,Product1,589970815,Cira,Waters,4329,81.73,56.67,353809.17,245324.43,108484.74,39.19618,-84.38071
Bethel,Product2,432681357,Leandro,Leal,8884,255.28,159.42,2267907.52,1416287.28,851620.24,38.96378,-84.08484
Cincinnati,Product1,380379998,Clifford,Torrez,1749,668.27,502.54,1168804.23,878942.46,289861.77,39.2579,-84.34173
Cincinnati,Product1,767490565,Brendan,Bock,6368,109.28,35.84,695895.04,228229.12,467665.92,39.09598,-84.26351
Cincinnati,Product1,648749387,Shemeka,Chalmers,8215,154.06,90.93,1265602.9,746989.95,518612.95,39.28133,-84.49696
Cincinnati,Product2,949205291,Marta,Dumont,9794,9.33,6.92,91378.02,67774.48,23603.54,39.12821,-84.43095
Amelia,Product1,414219605,Muoi,Mcdonough,5641,421.89,364.69,2379881.49,2057216.29,322665.2,39.02698,-84.21614
Cincinnati,Product1,559466159,Mario,Novotny,7324,152.58,97.44,1117495.92,713650.56,403845.36,39.29132,-84.46669
Cincinnati,Product1,720931279,Lucius,Martin,8441,152.58,97.44,1287927.78,822491.04,465436.74,39.10009,-84.51148
Cincinnati,Product1,304913794,Bridgette,Sierra,9623,651.21,524.96,6266593.83,5051690.08,1214903.75,39.21725,-84.54398
Middletown,Product1,138025033,Criselda,Dortch,3529,152.58,97.44,538454.82,343865.76,194589.06,39.52743,-84.38197
Middletown,Product1,217188823,Marge,Silverman,9854,109.28,35.84,1076845.12,353167.36,723677.76,39.4989,-84.35564
Oxford,Product1,159641492,Nannie,Champion,320,421.89,364.69,135004.8,116700.8,18304,39.51056,-84.74278
Monroe,Product2,552931869,Grant,Kiefer,3682,421.89,364.69,1553398.98,1342788.58,210610.4,39.44596,-84.35976
Fairfield,Product2,704921281,Debbra,Bobo,727,152.58,97.44,110925.66,70838.88,40086.78,39.33804,-84.56011
Crescent Springs,Product1,893783557,Neil,Bowman,9271,152.58,97.44,1414569.18,903366.24,511202.94,39.05476,-84.58073
Bellevue,Product1,118005025,Alba,Begay,9164,651.21,524.96,5967688.44,4810733.44,1156955,39.10094,-84.48784
Fort Thomas,Product1,146384513,Parthenia,Yancey,7285,152.58,97.44,1111545.3,709850.4,401694.9,39.07551,-84.46246
Burlington,Product2,568033349,Jimmy,Bettis,2546,109.28,35.84,278226.88,91248.64,186978.24,39.01966,-84.69036
Florence,Product2,142375361,Clark,Deal,888,9.33,6.92,8285.04,6144.96,2140.08,38.98744,-84.64886
Cincinnati,Product1,849146878,Carlene,Mallory,286,47.45,31.79,13570.7,9091.94,4478.76,39.16378,-84.47227
Sidney,Product1,238396728,Armand,Beltran,5744,81.73,56.67,469457.12,325512.48,143944.64,40.28569,-84.15608
Sidney,Product1,880486238,Refugio,Cuellar,4299,152.58,97.44,655941.42,418894.56,237046.86,40.29676,-84.15794
Sidney,Product1,916089236,Norbert,Wilburn,17,437.2,263.33,7432.4,4476.61,2955.79,40.28303,-84.15903
Lima,Product1,806192052,Jada,Santos,8998,205.7,117.11,1850888.6,1053755.78,797132.82,40.74129,-84.1054
Lima,Product2,182093513,Rick,Arnold,4372,205.7,117.11,899320.4,512004.92,387315.48,40.74941,-84.14695
Lima,Product1,995404946,Arden,Willie,1299,9.33,6.92,12119.67,8989.08,3130.59,40.73071,-84.07292
Lima,Product1,768050181,Zane,Riddell,1971,47.45,31.79,93523.95,62658.09,30865.86,40.75634,-84.10863
Lima,Product1,242265546,Alexia,Churchill,614,9.33,6.92,5728.62,4248.88,1479.74,40.70565,-84.1497
St. Marys,Product2,230599868,Marcelene,Khan,8480,651.21,524.96,5522260.8,4451660.8,1070600,40.54287,-84.3885
Cridersville,Product1,265914475,Delma,Cummins,8857,437.2,263.33,3872280.4,2332313.81,1539966.59,40.65666,-84.13536
Findlay,Product1,851383197,Maritza,Osburn,2062,668.27,502.54,1377972.74,1036237.48,341735.26,41.05339,-83.61092
Bluffton,Product1,310492360,Johanna,Murry,444,81.73,56.67,36288.12,25161.48,11126.64,40.89257,-83.89283
Wapakoneta,Product1,637040793,Oliver,Troutman,3382,152.58,97.44,516025.56,329542.08,186483.48,40.58016,-84.20358
Celina,Product1,745139825,Sima,Pruitt,2288,47.45,31.79,108565.6,72735.52,35830.08,40.54895,-84.57244
Findlay,Product1,519213283,Deneen,Shultz,5603,668.27,502.54,3744316.81,2815731.62,928585.19,41.06355,-83.66435
Findlay,Product1,363997495,Jina,Grice,3802,154.06,90.93,585736.12,345715.86,240020.26,41.03923,-83.65373
Findlay,Product1,754541289,Gricelda,Pritchard,4390,81.73,56.67,358794.7,248781.3,110013.4,41.03705,-83.65035
Dayton,Product1,886205995,Jaleesa,Jaime,6902,668.27,502.54,4612399.54,3468531.08,1143868.46,39.76079,-84.19215
Dayton,Product1,924665439,Stewart,Bartholomew,7906,255.28,159.42,2018243.68,1260374.52,757869.16,39.76373,-84.16591
Dayton,Product1,655905950,Marion,Lowman,6001,668.27,502.54,4010288.27,3015742.54,994545.73,39.76289,-84.19452
Dayton,Product1,836226356,Benny,Warner,6816,47.45,31.79,323419.2,216680.64,106738.56,39.78293,-84.18886
Dayton,Product1,942237985,Agustina,Vieira,8013,668.27,502.54,5354847.51,4026853.02,1327994.49,39.79952,-84.21842
Dayton,Product1,520864665,Eusebio,Verdin,4284,205.7,117.11,881218.8,501699.24,379519.56,39.72397,-84.14932
Dayton,Product1,539342725,Clinton,Delossantos,2353,152.58,97.44,359020.74,229276.32,129744.42,39.70106,-84.1235
Dayton,Product2,235220992,Bridget,Redding,5974,255.28,159.42,1525042.72,952375.08,572667.64,39.8241,-84.2906
Dayton,Product1,266360795,Rasheeda,Hulsey,933,205.7,117.11,191918.1,109263.63,82654.47,39.7666,-84.12353
Dayton,Product1,460935962,Trevor,Galvan,49,255.28,159.42,12508.72,7811.58,4697.14,39.70556,-84.17035
Phillipsburg,Product1,267432820,Elane,Lay,8169,205.7,117.11,1680363.3,956671.59,723691.71,39.90475,-84.40157
Huber Heights,Product1,104650199,Sheron,Wooden,7174,205.7,117.11,1475691.8,840147.14,635544.66,39.84697,-84.11612
West Carrollton,Product1,911699426,Zenobia,Tejada,975,437.2,263.33,426270,256746.75,169523.25,39.6717,-84.25261
Dayton,Product1,998004329,Jeanne,Conti,514,255.28,159.42,131213.92,81941.88,49272.04,39.79142,-84.09622
Vandalia,Product1,993301236,Ida,Lugo,8764,81.73,56.67,716281.72,496655.88,219625.84,39.88963,-84.21269
Dayton,Product1,697638976,Melvin,Jensen,5731,154.06,90.93,882917.86,521119.83,361798.03,39.82002,-84.1982
Centerville,Product2,431378877,Daysi,Baskin,3451,437.2,263.33,1508777.2,908751.83,600025.37,39.65764,-84.15747
Dayton,Product1,585194766,John,Latham,990,154.06,90.93,152519.4,90020.7,62498.7,39.81552,-84.03061
Centerville,Product1,270072972,Charity,Soriano,9449,81.73,56.67,772266.77,535474.83,236791.94,39.61488,-84.16024
Englewood,Product2,467312324,Renay,Healy,6956,255.28,159.42,1775727.68,1108925.52,666802.16,39.86745,-84.29124
Springboro,Product1,878524148,Fernanda,Denning,3673,9.33,6.92,34269.09,25417.16,8851.93,39.56119,-84.247
Beavercreek,Product1,375632274,Alta,Westfall,6792,437.2,263.33,2969462.4,1788537.36,1180925.04,39.7224,-84.06528
Fairborn,Product1,150873029,Norberto,Esparza,5537,9.33,6.92,51660.21,38316.04,13344.17,39.78325,-83.99934
Xenia,Product1,566795241,Shad,Pointer,6162,154.06,90.93,949317.72,560310.66,389007.06,39.68333,-83.93496
Tipp City,Product1,706260240,Krista,Cromer,6954,81.73,56.67,568350.42,394083.18,174267.24,39.96162,-84.19393
Eaton,Product1,622441852,Ara,Carrillo,3231,109.28,35.84,353083.68,115799.04,237284.64,39.75879,-84.63648
Piqua,Product1,888826406,Bennett,Lam,2340,47.45,31.79,111033,74388.6,36644.4,40.14981,-84.23817
Miamisburg,Product1,349212729,Adaline,Byrnes,8662,421.89,364.69,3654411.18,3158944.78,495466.4,39.63858,-84.26494
Greenville,Product1,167712152,Morgan,Simons,8607,421.89,364.69,3631207.23,3138886.83,492320.4,40.11595,-84.62221
Troy,Product1,678748500,Wilson,Aaron,5619,9.33,6.92,52425.27,38883.48,13541.79,40.04487,-84.21522
Dayton,Product1,937058103,Natalya,Laporte,5171,668.27,502.54,3455624.17,2598634.34,856989.83,39.75592,-84.21375
Dayton,Product1,967689788,Ileen,Settles,9767,109.28,35.84,1067337.76,350049.28,717288.48,39.63091,-84.19601
Beavercreek,Product1,416004884,Margherita,Fay,3945,437.2,263.33,1724754,1038836.85,685917.15,39.76461,-84.05422
Milford,Product1,797677218,Arron,Guerrero,9270,255.28,159.42,2366445.6,1477823.4,888622.2,39.19667,-84.2318
Warren,Product1,548693120,Jaquelyn,Culbertson,9342,152.58,97.44,1425402.36,910284.48,515117.88,41.26564,-80.78282
Massillon,Product1,875351417,Mario,Allen,4791,9.33,6.92,44700.03,33153.72,11546.31,40.79638,-81.52347
Gahanna,Product1,804263436,Numbers,Brubaker,8278,152.58,97.44,1263057.24,806608.32,456448.92,40.05873,-82.86346
Westerville,Product1,332353007,Andrea,Dugas,9495,437.2,263.33,4151214,2500318.35,1650895.65,40.14872,-82.92273
Florence,Product2,876856458,Delbert,Boudreau,166,421.89,364.69,70033.74,60538.54,9495.2,39.01793,-84.63236
Lewis Center,Product1,325322616,Lucilla,Healy,9046,154.06,90.93,1393626.76,822552.78,571073.98,40.1628,-83.01949
Powell,Product1,685612809,Freeman,Mcmaster,6921,668.27,502.54,4625096.67,3478079.34,1147017.33,40.15861,-83.09483
Columbus,Product1,435900866,Rashad,Schrader,1608,47.45,31.79,76299.6,51118.32,25181.28,40.10051,-83.07966
Columbus,Product1,374673116,Laurinda,Dang,2956,255.28,159.42,754607.68,471245.52,283362.16,39.997,-83.00749
Parma,Product1,470728385,Alejandro,Scribner,7845,205.7,117.11,1613716.5,918727.95,694988.55,41.38452,-81.74364
Huntington,Product1,313178002,Lisandra,Halsey,5185,47.45,31.79,246028.25,164831.15,81197.1,38.4197,-82.44182
Barboursville,Product1,461445796,Hiram,Pickering,920,81.73,56.67,75191.6,52136.4,23055.2,38.41364,-82.30615
Milton,Product1,195268094,Danyelle,Trout,3023,81.73,56.67,247069.79,171313.41,75756.38,38.4348,-82.12833
Beckley,Product1,664693725,Herbert,Irby,6499,152.58,97.44,991617.42,633262.56,358354.86,37.77558,-81.19171
Beckley,Product2,840084016,America,Chang,8384,152.58,97.44,1279230.72,816936.96,462293.76,37.81259,-81.18572
Beaver,Product1,662112796,Scot,Hoyle,2745,437.2,263.33,1200114,722840.85,477273.15,37.74905,-81.13496
Oak Hill,Product1,591766393,Carol,Hardesty,5681,154.06,90.93,875214.86,516573.33,358641.53,37.97416,-81.14501
Buckhannon,Product1,260343635,Tera,Aviles,322,109.28,35.84,35188.16,11540.48,23647.68,38.9941,-80.22954
Charleston,Product1,719455850,Izola,Lundy,1829,421.89,364.69,771636.81,667018.01,104618.8,38.3498,-81.63671
South Charleston,Product1,391026866,Erasmo,Almeida,2394,437.2,263.33,1046656.8,630412.02,416244.78,38.367,-81.69544
Charleston,Product1,917293012,Roberto,Deluca,6241,81.73,56.67,510076.93,353677.47,156399.46,38.3412,-81.64256
Elkview,Product1,410803115,Darron,Hammer,4626,255.28,159.42,1180925.28,737476.92,443448.36,38.44131,-81.48471
Charleston,Product1,204418504,Jann,Tremblay,833,154.06,90.93,128331.98,75744.69,52587.29,38.29881,-81.60487
Charleston,Product1,801313006,Lahoma,Lachance,5180,81.73,56.67,423361.4,293550.6,129810.8,38.35043,-81.63753
Charleston,Product1,524972951,Janetta,Bowlin,17,421.89,364.69,7172.13,6199.73,972.4,38.34012,-81.61594
Clarksburg,Product1,469197165,Kim,Lorenzo,4723,47.45,31.79,224106.35,150144.17,73962.18,39.27896,-80.33813
Clarksburg,Product2,448096978,Annie,Mccracken,708,651.21,524.96,461056.68,371671.68,89385,39.27896,-80.33784
Bridgeport,Product2,346096217,Man,Leroy,6417,109.28,35.84,701249.76,229985.28,471264.48,39.29978,-80.27681
Logan,Product1,567931210,Zackary,Register,2321,9.33,6.92,21654.93,16061.32,5593.61,37.84285,-81.97699
Chapmanville,Product2,688650786,Malissa,Morey,5926,668.27,502.54,3960168.02,2978052.04,982115.98,37.94818,-82.05171
Saint Albans,Product1,803616273,Kayla,Plunkett,6768,255.28,159.42,1727735.04,1078954.56,648780.48,38.3886,-81.82979
Wayne,Product2,178501498,Kasey,Spruill,1415,152.58,97.44,215900.7,137877.6,78023.1,38.22371,-82.43259
Huntington,Product1,399292790,Lyman,Cavanaugh,8465,437.2,263.33,3700898,2229088.45,1471809.55,38.37642,-82.45459
Wheeling,Product2,422288978,Ethyl,Mcclellan,3548,651.21,524.96,2310493.08,1862558.08,447935,40.06854,-80.72262
Bellaire,Product1,624101388,Wilbur,Muncy,4324,154.06,90.93,666155.44,393181.32,272974.12,40.01427,-80.74451
Shadyside,Product1,551653850,Edison,Desjardins,5488,205.7,117.11,1128881.6,642699.68,486181.92,39.9739,-80.74627
Bellaire,Product1,272182691,Kris,Aguiar,3762,421.89,364.69,1587150.18,1371963.78,215186.4,40.01414,-80.74332
Steubenville,Product1,823236739,Micah,Murdock,2900,651.21,524.96,1888509,1522384,366125,40.36238,-80.6138
Steubenville,Product1,162677323,Latonia,Lockhart,8690,81.73,56.67,710233.7,492462.3,217771.4,40.36006,-80.6151
Wheeling,Product1,818678271,Michael,Cupp,3948,668.27,502.54,2638329.96,1984027.92,654302.04,40.07223,-80.68236
Wintersville,Product1,439725911,Manuel,Grant,3524,9.33,6.92,32878.92,24386.08,8492.84,40.37141,-80.68704
Scott Depot,Product1,344619071,Neil,Walters,9296,47.45,31.79,441095.2,295519.84,145575.36,38.45185,-81.93741
Columbus,Product1,572469079,Jamie,Basham,5177,255.28,159.42,1321584.56,825317.34,496267.22,40.06601,-83.02446
Rocky River,Product1,332699763,Marin,Hale,2108,47.45,31.79,100024.6,67013.32,33011.28,41.45943,-81.86106
Cleveland,Product3,255047452,Latrina,Wallin,3064,152.58,97.44,467505.12,298556.16,168948.96,41.505,-81.69111
Columbus,Product1,139560973,Gus,Sterling,8048,437.2,263.33,3518585.6,2119279.84,1399305.76,40.14446,-82.99116
Columbus,Product1,306601655,Eugene,Orr,9098,109.28,35.84,994229.44,326072.32,668157.12,40.0796,-82.97585
Columbus,Product1,246843326,Dorothea,Welsh,5280,47.45,31.79,250536,167851.2,82684.8,40.05378,-83.04186
Dayton,Product1,871272313,Sheree,Diggs,7694,651.21,524.96,5010409.74,4039042.24,971367.5,39.63295,-84.11038
Chicago,Product1,461187446,Laquita,Irving,4469,9.33,6.92,41695.77,30925.48,10770.29,41.88187,-87.62948
Chicago,Product2,518200051,Will,Nunn,5766,437.2,263.33,2520895.2,1518360.78,1002534.42,41.90242,-87.6314
Chicago,Product1,814233958,Cristopher,Sands,8777,47.45,31.79,416468.65,279020.83,137447.82,41.88686,-87.62694
Oak Brook,Product1,741525495,Young,Mann,2727,437.2,263.33,1192244.4,718100.91,474143.49,41.84634,-87.97138
Elmhurst,Product1,662623488,Omega,Keeney,3870,421.89,364.69,1632714.3,1411350.3,221364,41.90178,-87.93988
Niles,Product1,560389268,Michale,Dozier,492,154.06,90.93,75797.52,44737.56,31059.96,42.05471,-87.83853
Chicago,Product1,487996661,Loyd,Loftus,7911,9.33,6.92,73809.63,54744.12,19065.51,41.84436,-87.7214
Oak Park,Product1,118931996,Christoper,Williamson,3475,154.06,90.93,535358.5,315981.75,219376.75,41.89475,-87.78969
Chicago,Product1,996994102,Jeff,Soliz,1565,437.2,263.33,684218,412111.45,272106.55,41.78014,-87.68353
Oak Lawn,Product2,686294305,Dagmar,Gerald,8591,81.73,56.67,702142.43,486851.97,215290.46,41.70296,-87.74032
Antioch,Product2,421256434,Randal,Murdock,7995,255.28,159.42,2040963.6,1274562.9,766400.7,42.47727,-88.09744
Northbrook,Product1,156616818,Rickie,Dale,5252,9.33,6.92,49001.16,36343.84,12657.32,42.13821,-87.84854
Glenview,Product2,817424285,Frankie,Dorris,2866,154.06,90.93,441535.96,260605.38,180930.58,42.07262,-87.80107
Chicago,Product1,249040162,Tamekia,Noriega,5373,205.7,117.11,1105226.1,629232.03,475994.07,42.00926,-87.69006
Chicago,Product1,867138278,Garrett,Corbitt,4341,651.21,524.96,2826902.61,2278851.36,548051.25,41.74931,-87.74003
Chicago,Product1,207704961,Carleen,Tijerina,3368,47.45,31.79,159811.6,107068.72,52742.88,41.94268,-87.66867
Orland Park,Product1,377039039,Meggan,Maxfield,3085,154.06,90.93,475275.1,280519.05,194756.05,41.61522,-87.85346
Chicago,Product1,401751840,Teddy,Leblanc,6152,205.7,117.11,1265466.4,720460.72,545005.68,41.74112,-87.70216
Chicago,Product1,278767192,Devin,Garvin,2262,109.28,35.84,247191.36,81070.08,166121.28,41.81445,-87.70373
Worth,Product1,525321424,Jamison,Crockett,3138,668.27,502.54,2097031.26,1576970.52,520060.74,41.6902,-87.79017
Berwyn,Product1,828963363,Sarai,Slagle,7535,154.06,90.93,1160842.1,685157.55,475684.55,41.8507,-87.78754
Chicago,Product1,497554337,Efren,Lehmann,6240,109.28,35.84,681907.2,223641.6,458265.6,41.93757,-87.6487
Chicago,Product2,709268176,Major,Hetrick,7070,9.33,6.92,65963.1,48924.4,17038.7,41.9217,-87.6646
Bolingbrook,Product1,462591207,Lavonna,Keys,9873,152.58,97.44,1506422.34,962025.12,544397.22,41.70976,-88.0728
Mount Prospect,Product1,626322257,Caridad,Lam,1529,81.73,56.67,124965.17,86648.43,38316.74,42.06444,-87.9352
Arlington Hts.,Product1,789572656,Gigi,Cloud,950,154.06,90.93,146357,86383.5,59973.5,42.05121,-87.98146
Palatine,Product2,611766231,Torie,Cheung,4077,255.28,159.42,1040776.56,649955.34,390821.22,42.139,-88.01541
Oak Park,Product1,272639310,Elinor,Mccloud,8885,651.21,524.96,5786000.85,4664269.6,1121731.25,41.88865,-87.80247
Oak Park,Product1,922240722,Janeen,Mccallister,379,9.33,6.92,3536.07,2622.68,913.39,41.87964,-87.79888
Winnetka,Product1,630931794,Charlsie,Binkley,5593,255.28,159.42,1427781.04,891636.06,536144.98,42.1059,-87.73346
Winnetka,Product1,239386355,Sharie,Sandoval,8597,651.21,524.96,5598452.37,4513081.12,1085371.25,42.10705,-87.73605
Chicago,Product1,208590734,Antonio,Garcia,5488,109.28,35.84,599728.64,196689.92,403038.72,41.96874,-87.6751
Schiller Park,Product1,169843757,Christina,Henley,9397,81.73,56.67,768016.81,532527.99,235488.82,41.95413,-87.86025
Lansing,Product1,274756753,Carmen,Sheets,5484,205.7,117.11,1128058.8,642231.24,485827.56,41.56471,-87.54133
Naperville,Product1,745253551,Lyn,Shea,5942,81.73,56.67,485639.66,336733.14,148906.52,41.7528,-88.11933
Aurora,Product1,523570477,Merry,Forte,4994,205.7,117.11,1027265.8,584847.34,442418.46,41.75821,-88.20751
Downers Grove,Product1,422256362,Siobhan,Barkley,3896,152.58,97.44,594451.68,379626.24,214825.44,41.80861,-88.01473
Batavia,Product1,874172532,Khadijah,Medlin,5933,668.27,502.54,3964845.91,2981569.82,983276.09,41.85194,-88.31221
Batavia,Product2,582492816,Siu,Wyatt,1423,668.27,502.54,950948.21,715114.42,235833.79,41.84985,-88.34034
Bloomingdale,Product1,570703542,Salvatore,Shell,2715,81.73,56.67,221896.95,153859.05,68037.9,41.9535,-88.10883
Bloomingdale,Product1,132603538,Carrie,Canady,9188,437.2,263.33,4016993.6,2419476.04,1597517.56,41.95807,-88.08513
Wheaton,Product1,882304131,Clyde,Reilly,2254,205.7,117.11,463647.8,263965.94,199681.86,41.86611,-88.10631
Wheaton,Product1,904229152,Aurelio,Hofmann,355,255.28,159.42,90624.4,56594.1,34030.3,41.86621,-88.1028
Carol Stream,Product1,603114926,Danyell,Deyoung,3964,651.21,524.96,2581396.44,2080941.44,500455,41.89198,-88.10545
Warrenville,Product2,454010283,Noelia,Mcneil,587,152.58,97.44,89564.46,57197.28,32367.18,41.8313,-88.19943
Wheaton,Product1,552276551,Hugo,Nickerson,9759,421.89,364.69,4117224.51,3559009.71,558214.8,41.83945,-88.10177
St. Charles,Product1,163587558,Meggan,Mount,8048,152.58,97.44,1227963.84,784197.12,443766.72,41.9225,-88.28533
St. Charles,Product1,873929631,Rubi,Segura,4053,47.45,31.79,192314.85,128844.87,63469.98,41.90406,-88.34008
Elgin,Product2,739601600,Teodora,Cortez,3404,205.7,117.11,700202.8,398642.44,301560.36,42.02597,-88.33898
Chicago,Product2,137214791,Gary,Stidham,3761,437.2,263.33,1644309.2,990384.13,653925.07,41.77396,-87.58639
Chicago,Product1,413693034,Jonathan,Boothe,9817,9.33,6.92,91592.61,67933.64,23658.97,41.89283,-87.62411
Chicago,Product2,736272656,Perry,Graf,8296,9.33,6.92,77401.68,57408.32,19993.36,41.89843,-87.62395
Hinsdale,Product1,342502486,Velva,Murry,2952,255.28,159.42,753586.56,470607.84,282978.72,41.81739,-87.92061
Woodridge,Product1,790243852,Donte,Nix,9572,437.2,263.33,4184878.4,2520594.76,1664283.64,41.75106,-88.01255
Chicago,Product1,107670581,Kelley,Whelan,972,81.73,56.67,79441.56,55083.24,24358.32,41.98994,-87.73268
River Grove,Product1,443269002,Normand,Creighton,2003,668.27,502.54,1338544.81,1006587.62,331957.19,41.93692,-87.83586
Romeoville,Product2,415837943,Ulysses,Nagle,4543,255.28,159.42,1159737.04,724245.06,435491.98,41.6532,-88.08312
Crystal Lake,Product1,964488732,Lenny,Gilmer,2504,47.45,31.79,118814.8,79602.16,39212.64,42.22563,-88.31182
Chicago,Product1,398645198,Carol,Bui,6828,255.28,159.42,1743051.84,1088519.76,654532.08,41.9872,-87.77815
Barrington,Product1,248043668,Verona,Kellogg,488,9.33,6.92,4553.04,3376.96,1176.08,42.16154,-88.13796
Elgin,Product1,312732970,Linwood,Carbajal,3490,437.2,263.33,1525828,919021.7,606806.3,42.03726,-88.28477
Skokie,Product1,913074433,Toni,Muniz,7870,81.73,56.67,643215.1,445992.9,197222.2,42.04084,-87.73269
Skokie,Product1,639741885,Noelia,Bernhardt,2695,668.27,502.54,1800987.65,1354345.3,446642.35,42.02645,-87.75454
Arlington Hts.,Product1,403721654,Antony,Fuqua,9064,651.21,524.96,5902567.44,4758237.44,1144330,42.11184,-87.97903
Elgin,Product2,286312568,Darci,Thurman,5106,109.28,35.84,557983.68,182999.04,374984.64,42.04652,-88.25159
Hoffman Estates,Product2,889125955,Tracie,Soriano,983,9.33,6.92,9171.39,6802.36,2369.03,42.04647,-88.143
Elgin,Product1,184085643,Neville,Aguilera,3887,47.45,31.79,184438.15,123567.73,60870.42,42.03404,-88.31806
Evanston,Product1,263427960,Denny,Mcvay,3042,9.33,6.92,28381.86,21050.64,7331.22,42.04676,-87.68143
Evanston,Product1,589701735,Krystal,Erwin,4703,47.45,31.79,223157.35,149508.37,73648.98,42.05297,-87.70977
Glenview,Product1,245768296,Johnie,Kowalski,7155,154.06,90.93,1102299.3,650604.15,451695.15,42.10638,-87.84889
Highland Park,Product1,184801471,Sterling,Silvers,5717,47.45,31.79,271271.65,181743.43,89528.22,42.1861,-87.79839
Highland Park,Product1,980287587,Seth,Goldstein,7736,255.28,159.42,1974846.08,1233273.12,741572.96,42.18759,-87.79793
Gurnee,Product1,576025474,Adele,Henson,7593,255.28,159.42,1938341.04,1210476.06,727864.98,42.38572,-87.96013
Lake Zurich,Product1,136126458,Rochell,Fusco,1699,152.58,97.44,259233.42,165550.56,93682.86,42.20147,-88.04728
Lemont,Product1,895014369,Carlo,Whittaker,3496,47.45,31.79,165885.2,111137.84,54747.36,41.65948,-87.99999
Mount Prospect,Product2,107425534,Alexis,Fallon,8458,47.45,31.79,401332.1,268879.82,132452.28,42.0879,-87.93418
Mount Prospect,Product1,498408782,Henrietta,Meza,9089,437.2,263.33,3973710.8,2393406.37,1580304.43,42.04364,-87.94082
Streamwood,Product1,813325440,Clark,Sparrow,9927,437.2,263.33,4340084.4,2614076.91,1726007.49,42.01281,-88.17963
Schaumburg,Product1,767849338,Kelsey,Lucas,2537,255.28,159.42,647645.36,404448.54,243196.82,42.05163,-88.04882
Northfield,Product2,597966802,Ofelia,Wooden,520,9.33,6.92,4851.6,3598.4,1253.2,42.10233,-87.77094
Winfield,Product1,609976661,Gaston,Mcgehee,4504,81.73,56.67,368111.92,255241.68,112870.24,41.87105,-88.15791
Schaumburg,Product1,730490243,Melvin,Pena,7151,421.89,364.69,3016935.39,2607898.19,409037.2,42.04033,-88.04558
Elk Grove Village,Product2,956431376,Jessie,Hamilton,8153,81.73,56.67,666344.69,462030.51,204314.18,42.02827,-87.98615
Park Ridge,Product1,905036389,Mallie,Ohara,9234,205.7,117.11,1899433.8,1081393.74,818040.06,42.01148,-87.82995
Joliet,Product1,263854110,Tanner,Desimone,9149,421.89,364.69,3859871.61,3336548.81,523322.8,41.52653,-88.08014
Joliet,Product1,140745866,Valentin,Mccaskill,8684,255.28,159.42,2216851.52,1384403.28,832448.24,41.522,-88.1433
Park Forest,Product1,813885486,Booker,Rankin,5656,109.28,35.84,618087.68,202711.04,415376.64,41.48598,-87.67877
Plainfield,Product1,381759297,Earl,Foy,9914,109.28,35.84,1083401.92,355317.76,728084.16,41.60771,-88.20363
Shorewood,Product1,613166129,Keneth,Alston,8338,437.2,263.33,3645373.6,2195645.54,1449728.06,41.5215,-88.20871
Crest Hill,Product1,197217309,Lillie,Matlock,9839,152.58,97.44,1501234.62,958712.16,542522.46,41.55319,-88.12322
Mokena,Product1,593336665,Ashton,Spring,359,109.28,35.84,39231.52,12866.56,26364.96,41.53106,-87.88775
New Lenox,Product1,181260526,Oma,Horsley,7872,651.21,524.96,5126325.12,4132485.12,993840,41.5176,-87.98002
